{
	"version": 0,
	"passes": [
		{
			"address": {
				"road": "SP244",
				"municipality": "Livinallongo del Col di Lana",
				"region": "Veneto"
			},
			"id": 1,
			"elevation": 1875,
			"name": "Passo Campolongo",
			"type": "pass",
			"coordinates": {
				"longitude": 11.872573,
				"latitude": 46.513603
			}
		},
		{
			"address": {
				"road": "S. Maria Assunta, SP347",
				"municipality": "Cibiana di Cadore",
				"region": "Veneto"
			},
			"id": 2,
			"elevation": 1530,
			"name": "Passo Cibiana",
			"type": "pass",
			"coordinates": {
				"longitude": 12.25853,
				"latitude": 46.374362
			}
		},
		{
			"address": {
				"road": "LS/SP43",
				"municipality": "Marebbe",
				"region": "Trentino-Alto Adige"
			},
			"id": 3,
			"elevation": 1789,
			"name": "Passo Furcia",
			"type": "pass",
			"coordinates": {
				"longitude": 11.969508,
				"latitude": 46.723057
			}
		},
		{
			"address": {
				"road": "Via Santa Fosca",
				"municipality": "Val di Zoldo",
				"region": "Veneto"
			},
			"id": 4,
			"elevation": 1773,
			"name": "Passo Staulanza",
			"type": "pass",
			"coordinates": {
				"longitude": 12.104841,
				"latitude": 46.420776
			}
		},
		{
			"address": {
				"road": "SR251",
				"municipality": "Cimolais",
				"region": "Friuli-Venezia Giulia"
			},
			"id": 5,
			"elevation": 827,
			"name": "Passo di Sant'Osvaldo",
			"type": "pass",
			"coordinates": {
				"longitude": 12.408843,
				"latitude": 46.285423
			}
		},
		{
			"address": {
				"road": "Rifugio Auronzo, Forcella Longeres, Auronzo di Cadore (BL)",
				"municipality": "Auronzo di Cadore",
				"region": "Veneto"
			},
			"id": 6,
			"elevation": 2333,
			"name": "Tre Cime di Lavaredo",
			"type": "peak",
			"coordinates": {
				"longitude": 12.295813,
				"latitude": 46.612209
			}
		},
		{
			"address": {
				"road": "Via Milano",
				"municipality": "Comelico Superiore",
				"region": "Veneto"
			},
			"id": 7,
			"elevation": 1489,
			"name": "Passo Sant'Antonio",
			"type": "pass",
			"coordinates": {
				"longitude": 12.482346,
				"latitude": 46.572006
			}
		},
		{
			"address": {
				"road": "SP138",
				"municipality": "Terragnolo",
				"region": "Trentino-Alto Adige"
			},
			"id": 8,
			"elevation": 1206,
			"name": "Passo della Borcola",
			"type": "pass",
			"coordinates": {
				"longitude": 11.20672,
				"latitude": 45.827625
			}
		},
		{
			"address": {
				"road": "Via Balassi",
				"municipality": "Galbiate",
				"region": "Lombardia"
			},
			"id": 9,
			"elevation": 922,
			"name": "Monte Barro",
			"type": "peak",
			"coordinates": {
				"longitude": 9.371338,
				"latitude": 45.831551
			}
		},
		{
			"address": {
				"road": "Strada Statale 52 Carnica",
				"municipality": "Lorenzago di Cadore",
				"region": "Veneto"
			},
			"id": 10,
			"elevation": 1298,
			"name": "Passo di Mauria",
			"type": "pass",
			"coordinates": {
				"longitude": 12.5125,
				"latitude": 46.457779
			}
		},
		{
			"address": {
				"road": "Passo San Boldo, Via San Boldo",
				"municipality": "Cison di Valmarino",
				"region": "Veneto"
			},
			"id": 11,
			"elevation": 706,
			"name": "Passo San Boldo",
			"type": "pass",
			"coordinates": {
				"longitude": 12.169427,
				"latitude": 46.006831
			}
		},
		{
			"address": {
				"road": "Passo Sommo, Strada Statale 350 di Folgaria e Val d'Astico",
				"municipality": "Folgaria",
				"region": "Trentino-Alto Adige"
			},
			"id": 12,
			"elevation": 1341,
			"name": "Passo Sommo",
			"type": "pass",
			"coordinates": {
				"longitude": 11.2062,
				"latitude": 45.919575
			}
		},
		{
			"address": {
				"road": "Strada Statale di Val D'Assa e Pedemontana Costo",
				"municipality": "Levico Terme",
				"region": "Trentino-Alto Adige"
			},
			"id": 13,
			"elevation": 1402,
			"name": "Passo Vezzena",
			"type": "pass",
			"coordinates": {
				"longitude": 11.328481,
				"latitude": 45.956669
			}
		},
		{
			"address": {
				"road": "Valico della Fricca, SS349",
				"municipality": "Altopiano della Vigolana",
				"region": "Trentino-Alto Adige"
			},
			"id": 14,
			"elevation": 1083,
			"name": "Valico della Fricca",
			"type": "pass",
			"coordinates": {
				"longitude": 11.207197,
				"latitude": 45.949764
			}
		},
		{
			"address": {
				"road": "Strada dello Xomo",
				"municipality": "Valli del Pasubio",
				"region": "Veneto"
			},
			"id": 15,
			"elevation": 1058,
			"name": "Passo Xomo",
			"type": "pass",
			"coordinates": {
				"longitude": 11.237678,
				"latitude": 45.777012
			}
		},
		{
			"address": {
				"road": "SP347",
				"municipality": "Voltago Agordino",
				"region": "Veneto"
			},
			"id": 16,
			"elevation": 1299,
			"name": "Forcella Aurine",
			"type": "pass",
			"coordinates": {
				"longitude": 11.974394,
				"latitude": 46.236855
			}
		},
		{
			"address": {
				"road": "SP473",
				"municipality": "Sovramonte",
				"region": "Veneto"
			},
			"id": 17,
			"elevation": 1011,
			"name": "Croce d'Aune",
			"type": "pass",
			"coordinates": {
				"longitude": 11.829508,
				"latitude": 46.062172
			}
		},
		{
			"address": {
				"road": "Passo San Jorio",
				"municipality": "Gravedona ed Uniti",
				"region": "Lombardia"
			},
			"id": 18,
			"elevation": 2010,
			"name": "Passo San Jorio",
			"type": "pass",
			"coordinates": {
				"longitude": 9.15921,
				"latitude": 46.166599
			}
		},
		{
			"address": {
				"road": "Fleimstaler Straße - Via Val di Fiemme",
				"municipality": "Trodena nel Parco Naturale",
				"region": "Trentino-Alto Adige"
			},
			"id": 19,
			"elevation": 1097,
			"name": "Passo San Lugano",
			"type": "pass",
			"coordinates": {
				"longitude": 11.395226,
				"latitude": 46.310772
			}
		},
		{
			"address": {
				"road": "Passo Posporcora",
				"municipality": "Cortina d'Ampezzo",
				"region": "Veneto"
			},
			"id": 20,
			"elevation": 1720,
			"name": "Passo Pospòrcora",
			"type": "pass",
			"coordinates": {
				"longitude": 12.095513,
				"latitude": 46.582432
			}
		},
		{
			"address": {
				"road": "Via Valsabbia",
				"municipality": "Lumezzane",
				"region": "Lombardia"
			},
			"id": 21,
			"elevation": 742,
			"name": "Passo del Cavallo",
			"type": "pass",
			"coordinates": {
				"longitude": 10.318016,
				"latitude": 45.648209
			}
		},
		{
			"address": {
				"road": "Strada Provinciale della Val Imperina",
				"municipality": "Gosaldo",
				"region": "Veneto"
			},
			"id": 22,
			"elevation": 990,
			"name": "Forcella Franche",
			"type": "pass",
			"coordinates": {
				"longitude": 12.012106,
				"latitude": 46.232258
			}
		},
		{
			"address": {
				"road": "Strada del Redebus",
				"municipality": "Bedollo",
				"region": "Trentino-Alto Adige"
			},
			"id": 23,
			"elevation": 1455,
			"name": "Passo del Redebus",
			"type": "pass",
			"coordinates": {
				"longitude": 11.323638,
				"latitude": 46.135585
			}
		},
		{
			"address": {
				"road": "Forcella di Pala Barzana, SP63",
				"municipality": "Frisanco",
				"region": "Friuli-Venezia Giulia"
			},
			"id": 24,
			"elevation": 842,
			"name": "Forcella di Pala Barzana",
			"type": "pass",
			"coordinates": {
				"longitude": 12.65906,
				"latitude": 46.196022
			}
		},
		{
			"address": {
				"road": "Strada esterna Corso",
				"municipality": "Ampezzo",
				"region": "Friuli-Venezia Giulia"
			},
			"id": 25,
			"elevation": 886,
			"name": "Sella Di Cima Corso",
			"type": "pass",
			"coordinates": {
				"longitude": 12.741609,
				"latitude": 46.396187
			}
		},
		{
			"address": {
				"road": "Via Tamor",
				"municipality": "Resia",
				"region": "Friuli-Venezia Giulia"
			},
			"id": 26,
			"elevation": 1086,
			"name": "Sella Carnizza",
			"type": "pass",
			"coordinates": {
				"longitude": 13.319898,
				"latitude": 46.336493
			}
		},
		{
			"address": {
				"road": "SP79",
				"municipality": "Castello Tesino",
				"region": "Trentino-Alto Adige"
			},
			"id": 27,
			"elevation": 1616,
			"name": "Passo Brocon",
			"type": "pass",
			"coordinates": {
				"longitude": 11.688416,
				"latitude": 46.118584
			}
		},
		{
			"address": {
				"road": "SR552",
				"municipality": "Socchieve",
				"region": "Friuli-Venezia Giulia"
			},
			"id": 28,
			"elevation": 1052,
			"name": "Passo Rest",
			"type": "pass",
			"coordinates": {
				"longitude": 12.784567,
				"latitude": 46.354927
			}
		},
		{
			"address": {
				"road": "Panoramica delle Vette",
				"municipality": "Comeglians",
				"region": "Friuli-Venezia Giulia"
			},
			"id": 29,
			"elevation": 1982,
			"name": "Monte Crostis",
			"type": "peak",
			"coordinates": {
				"longitude": 12.89295,
				"latitude": 46.565086
			}
		},
		{
			"address": {
				"road": "Forcella di Lius, Strada Provinciale Duron",
				"municipality": "Treppo Ligosullo",
				"region": "Friuli-Venezia Giulia"
			},
			"id": 30,
			"elevation": 1030,
			"name": "Forcella Duron",
			"type": "pass",
			"coordinates": {
				"longitude": 13.08476,
				"latitude": 46.538494
			}
		},
		{
			"address": {
				"road": "Sella Cereschiatis, SP112",
				"municipality": "Dogna",
				"region": "Friuli-Venezia Giulia"
			},
			"id": 31,
			"elevation": 1066,
			"name": "Sella Cereschiatis",
			"type": "pass",
			"coordinates": {
				"longitude": 13.24507,
				"latitude": 46.504025
			}
		},
		{
			"address": {
				"road": "Sella del Monte Zoncolan",
				"municipality": "Sutrio",
				"region": "Friuli-Venezia Giulia"
			},
			"id": 32,
			"elevation": 1750,
			"name": "Sella Monte Zoncolan",
			"type": "pass",
			"coordinates": {
				"longitude": 12.926874,
				"latitude": 46.501907
			}
		},
		{
			"address": {
				"road": "Casera Razzo, SP619",
				"municipality": "Vigo di Cadore",
				"region": "Veneto"
			},
			"id": 33,
			"elevation": 1760,
			"name": "Sella di Razzo",
			"type": "pass",
			"coordinates": {
				"longitude": 12.60856,
				"latitude": 46.478462
			}
		},
		{
			"address": {
				"road": "SP619",
				"municipality": "Vigo di Cadore",
				"region": "Veneto"
			},
			"id": 34,
			"elevation": 1790,
			"name": "Sella Ciampigotto",
			"type": "pass",
			"coordinates": {
				"longitude": 12.582242,
				"latitude": 46.487507
			}
		},
		{
			"address": {
				"road": "Passo del Pura, Strada del Monte Pura",
				"municipality": "Ampezzo",
				"region": "Friuli-Venezia Giulia"
			},
			"id": 35,
			"elevation": 1428,
			"name": "Passo Del Pura",
			"type": "pass",
			"coordinates": {
				"longitude": 12.743819,
				"latitude": 46.422874
			}
		},
		{
			"address": {
				"road": "Strada Comunale Preone - Pozzis",
				"municipality": "Preone",
				"region": "Friuli-Venezia Giulia"
			},
			"id": 36,
			"elevation": 780,
			"name": "Sella Chiampon",
			"type": "pass",
			"coordinates": {
				"longitude": 12.879367,
				"latitude": 46.359028
			}
		},
		{
			"address": {
				"road": "Sella Chianzutan, Via Sella Chianzutan",
				"municipality": "Verzegnis",
				"region": "Friuli-Venezia Giulia"
			},
			"id": 37,
			"elevation": 950,
			"name": "Sella Chianzutan",
			"type": "pass",
			"coordinates": {
				"longitude": 12.941294,
				"latitude": 46.359429
			}
		},
		{
			"address": {
				"road": "Strada Provinciale 79 del Brocon",
				"municipality": "Canal San Bovo",
				"region": "Trentino-Alto Adige"
			},
			"id": 38,
			"elevation": 988,
			"name": "Passo della Gobbera",
			"type": "pass",
			"coordinates": {
				"longitude": 11.758118,
				"latitude": 46.148441
			}
		},
		{
			"address": {
				"road": "SP78",
				"municipality": "Pieve Tesino",
				"region": "Trentino-Alto Adige"
			},
			"id": 39,
			"elevation": 910,
			"name": "Passo Forcella",
			"type": "pass",
			"coordinates": {
				"longitude": 11.579933,
				"latitude": 46.078709
			}
		},
		{
			"address": {
				"road": "Colle dei Giovetti, Strada provinciale del Colle del Melogno",
				"municipality": "Massimino",
				"region": "Liguria"
			},
			"id": 40,
			"elevation": 912,
			"name": "Colle dei Giovetti",
			"type": "pass",
			"coordinates": {
				"longitude": 8.096221,
				"latitude": 44.279339
			}
		},
		{
			"address": {
				"road": "SP213",
				"municipality": "Garessio",
				"region": "Piemonte"
			},
			"id": 41,
			"elevation": 1112,
			"name": "Colle Quazzo",
			"type": "pass",
			"coordinates": {
				"longitude": 8.067827,
				"latitude": 44.201683
			}
		},
		{
			"address": {
				"road": "SP52",
				"municipality": "Castelvecchio di Rocca Barbena",
				"region": "Liguria"
			},
			"id": 42,
			"elevation": 814,
			"name": "Colle Scravaion",
			"type": "pass",
			"coordinates": {
				"longitude": 8.120506,
				"latitude": 44.159519
			}
		},
		{
			"address": {
				"road": "Monte Carpasina, SP21",
				"municipality": "Montalto Carpasio",
				"region": "Liguria"
			},
			"id": 43,
			"elevation": 1167,
			"name": "Colle d'Oggia",
			"type": "pass",
			"coordinates": {
				"longitude": 7.867879,
				"latitude": 43.981716
			}
		},
		{
			"address": {
				"road": "Testa d'Alpe - Alto, SP69",
				"municipality": "Isolabona",
				"region": "Liguria"
			},
			"id": 44,
			"elevation": 1219,
			"name": "Passo Gouta",
			"type": "pass",
			"coordinates": {
				"longitude": 7.608461,
				"latitude": 43.939503
			}
		},
		{
			"address": {
				"road": "Madonna del Colletto, Via Madonna del Colletto",
				"municipality": "Valdieri",
				"region": "Piemonte"
			},
			"id": 45,
			"elevation": 1303,
			"name": "Madonna del Colletto",
			"type": "pass",
			"coordinates": {
				"longitude": 7.37277,
				"latitude": 44.283493
			}
		},
		{
			"address": {
				"road": "SP5",
				"municipality": "Chiusa di Pesio",
				"region": "Piemonte"
			},
			"id": 46,
			"elevation": 708,
			"name": "Colle del Mortè",
			"type": "pass",
			"coordinates": {
				"longitude": 7.701952,
				"latitude": 44.312332
			}
		},
		{
			"address": {
				"road": "Colle d'Esischie",
				"municipality": "Marmora",
				"region": "Piemonte"
			},
			"id": 47,
			"elevation": 2366,
			"name": "Colle d'Esischie",
			"type": "pass",
			"coordinates": {
				"longitude": 7.123475,
				"latitude": 44.396797
			}
		},
		{
			"address": {
				"road": "Colle del Vallonetto",
				"municipality": "Castelmagno",
				"region": "Piemonte"
			},
			"id": 48,
			"elevation": 2447,
			"name": "Colle del Vallonetto",
			"type": "pass",
			"coordinates": {
				"longitude": 7.120171,
				"latitude": 44.389511
			}
		},
		{
			"address": {
				"road": "Colle Valcavera, Maira-Stura-Kammstraße",
				"municipality": "Sambuco",
				"region": "Piemonte"
			},
			"id": 49,
			"elevation": 2416,
			"name": "Colle Valcavera",
			"type": "pass",
			"coordinates": {
				"longitude": 7.101266,
				"latitude": 44.381638
			}
		},
		{
			"address": {
				"road": "SP188",
				"municipality": "Valgioie",
				"region": "Piemonte"
			},
			"id": 50,
			"elevation": 1007,
			"name": "Colle Braida",
			"type": "pass",
			"coordinates": {
				"longitude": 7.333841,
				"latitude": 45.083076
			}
		},
		{
			"address": {
				"road": "Strada Colle di Joux",
				"municipality": "Saint-Vincent",
				"region": "Valle d'Aosta"
			},
			"id": 51,
			"elevation": 1640,
			"name": "Col de Joux",
			"type": "pass",
			"coordinates": {
				"longitude": 7.702661,
				"latitude": 45.753788
			}
		},
		{
			"address": {
				"road": "SP115",
				"municipality": "Tavigliano",
				"region": "Piemonte"
			},
			"id": 52,
			"elevation": 1382,
			"name": "Bocchetto Sessera",
			"type": "pass",
			"coordinates": {
				"longitude": 8.060081,
				"latitude": 45.663399
			}
		},
		{
			"address": {
				"road": "Panoramica Zegna",
				"municipality": "Trivero",
				"region": "Piemonte"
			},
			"id": 53,
			"elevation": 1206,
			"name": "Bocchetta di Stavello",
			"type": "pass",
			"coordinates": {
				"longitude": 8.14265,
				"latitude": 45.681931
			}
		},
		{
			"address": {
				"road": "SP7",
				"municipality": "Castelveccana",
				"region": "Lombardia"
			},
			"id": 54,
			"elevation": 1036,
			"name": "Passo Sant'Antonio Vararo",
			"type": "pass",
			"coordinates": {
				"longitude": 8.691999,
				"latitude": 45.931885
			}
		},
		{
			"address": {
				"road": "Via Valle Rossa",
				"municipality": "Bianzano",
				"region": "Lombardia"
			},
			"id": 55,
			"elevation": 653,
			"name": "Forcella di Val Rossa",
			"type": "pass",
			"coordinates": {
				"longitude": 9.908853,
				"latitude": 45.771069
			}
		},
		{
			"address": {
				"road": "Via Giallo",
				"municipality": "Borno",
				"region": "Lombardia"
			},
			"id": 56,
			"elevation": 1153,
			"name": "Valico della Croce di Salven",
			"type": "pass",
			"coordinates": {
				"longitude": 10.151196,
				"latitude": 45.94738
			}
		},
		{
			"address": {
				"road": "Colle di San Zeno",
				"municipality": "Pezzaze",
				"region": "Lombardia"
			},
			"id": 57,
			"elevation": 1420,
			"name": "Colle di San Zeno",
			"type": "pass",
			"coordinates": {
				"longitude": 10.187116,
				"latitude": 45.780724
			}
		},
		{
			"address": {
				"road": "SP50",
				"municipality": "Pertica Alta",
				"region": "Lombardia"
			},
			"id": 58,
			"elevation": 954,
			"name": "Passo del Termine",
			"type": "pass",
			"coordinates": {
				"longitude": 10.309875,
				"latitude": 45.746098
			}
		},
		{
			"address": {
				"road": "Via John Fitzgerald Kennedy",
				"municipality": "Lodrino",
				"region": "Lombardia"
			},
			"id": 59,
			"elevation": 735,
			"name": "Cocca di Lodrino",
			"type": "pass",
			"coordinates": {
				"longitude": 10.286175,
				"latitude": 45.71188
			}
		},
		{
			"address": {
				"road": "Via Passo Maniva",
				"municipality": "Collio",
				"region": "Lombardia"
			},
			"id": 60,
			"elevation": 1725,
			"name": "Passo del Dosso Alto",
			"type": "pass",
			"coordinates": {
				"longitude": 10.406756,
				"latitude": 45.806396
			}
		},
		{
			"address": {
				"road": "SP236",
				"municipality": "Tre Ville",
				"region": "Trentino-Alto Adige"
			},
			"id": 61,
			"elevation": 1295,
			"name": "Passo Daone",
			"type": "pass",
			"coordinates": {
				"longitude": 10.742784,
				"latitude": 46.073231
			}
		},
		{
			"address": {
				"road": "SP64",
				"municipality": "Fai della Paganella",
				"region": "Trentino-Alto Adige"
			},
			"id": 62,
			"elevation": 1032,
			"name": "Passo del Santel",
			"type": "pass",
			"coordinates": {
				"longitude": 11.053491,
				"latitude": 46.176708
			}
		},
		{
			"address": {
				"road": "Via Predaia",
				"municipality": "Predaia",
				"region": "Trentino-Alto Adige"
			},
			"id": 63,
			"elevation": 1250,
			"name": "Passo Predaia",
			"type": "pass",
			"coordinates": {
				"longitude": 11.140652,
				"latitude": 46.326542
			}
		},
		{
			"address": {
				"road": "LS/SP86",
				"municipality": "Brez",
				"region": "Trentino-Alto Adige"
			},
			"id": 64,
			"elevation": 1397,
			"name": "Forcella di Brez",
			"type": "pass",
			"coordinates": {
				"longitude": 11.082373,
				"latitude": 46.451401
			}
		},
		{
			"address": {
				"road": "SP48",
				"municipality": "Ronzo-Chienis",
				"region": "Trentino-Alto Adige"
			},
			"id": 65,
			"elevation": 1169,
			"name": "Passo Santa Barbara",
			"type": "pass",
			"coordinates": {
				"longitude": 10.941449,
				"latitude": 45.895817
			}
		},
		{
			"address": {
				"road": "Via Panoramica",
				"municipality": "Malcesine",
				"region": "Veneto"
			},
			"id": 66,
			"elevation": 375,
			"name": "Passo Campiano",
			"type": "pass",
			"coordinates": {
				"longitude": 10.823421,
				"latitude": 45.763599
			}
		},
		{
			"address": {
				"road": "Strada Provinciale 14 dell'Alta Valpantena",
				"municipality": "Erbezzo",
				"region": "Veneto"
			},
			"id": 67,
			"elevation": 1399,
			"name": "Passo delle Fittanze della Sega",
			"type": "pass",
			"coordinates": {
				"longitude": 10.979204,
				"latitude": 45.683487
			}
		},
		{
			"address": {
				"road": "Strada Provinciale 6",
				"municipality": "Bosco Chiesanuova",
				"region": "Veneto"
			},
			"id": 68,
			"elevation": 1590,
			"name": "Passo del Branchetto",
			"type": "pass",
			"coordinates": {
				"longitude": 11.070292,
				"latitude": 45.679153
			}
		},
		{
			"address": {
				"road": "Strada Provinciale dei Francolini",
				"municipality": "Folgaria",
				"region": "Trentino-Alto Adige"
			},
			"id": 69,
			"elevation": 1610,
			"name": "Passo Coe",
			"type": "pass",
			"coordinates": {
				"longitude": 11.21187,
				"latitude": 45.877357
			}
		},
		{
			"address": {
				"road": "Forcella Valbona, Strada Provinciale dei Francolini",
				"municipality": "Laghi",
				"region": "Veneto"
			},
			"id": 70,
			"elevation": 1782,
			"name": "Valico di Valbona",
			"type": "pass",
			"coordinates": {
				"longitude": 11.272058,
				"latitude": 45.868191
			}
		},
		{
			"address": {
				"road": "località Passo Cimirlo",
				"municipality": "Trento",
				"region": "Trentino-Alto Adige"
			},
			"id": 71,
			"elevation": 730,
			"name": "Passo del Cimirlo",
			"type": "pass",
			"coordinates": {
				"longitude": 11.184726,
				"latitude": 46.067604
			}
		},
		{
			"address": {
				"road": "SS347",
				"municipality": "Primiero San Martino di Castrozza",
				"region": "Trentino-Alto Adige"
			},
			"id": 72,
			"elevation": 1369,
			"name": "Passo Cereda",
			"type": "pass",
			"coordinates": {
				"longitude": 11.904716,
				"latitude": 46.192902
			}
		},
		{
			"address": {
				"road": "LS/SP64",
				"municipality": "Castelrotto",
				"region": "Trentino-Alto Adige"
			},
			"id": 73,
			"elevation": 1442,
			"name": "Passo Pinei",
			"type": "pass",
			"coordinates": {
				"longitude": 11.624479,
				"latitude": 46.579437
			}
		},
		{
			"address": {
				"road": "Forcella Mostaccin, Via Vittorio Emanuele III",
				"municipality": "Maser",
				"region": "Veneto"
			},
			"id": 74,
			"elevation": 372,
			"name": "Forcella Mostaccin",
			"type": "pass",
			"coordinates": {
				"longitude": 11.960979,
				"latitude": 45.823895
			}
		},
		{
			"address": {
				"road": "Via del Cansiglio",
				"municipality": "Fregona",
				"region": "Veneto"
			},
			"id": 75,
			"elevation": 1127,
			"name": "Passo Crosetta",
			"type": "pass",
			"coordinates": {
				"longitude": 12.40571,
				"latitude": 46.035019
			}
		},
		{
			"address": {
				"road": "Via Corrin",
				"municipality": "Mel",
				"region": "Veneto"
			},
			"id": 76,
			"elevation": 910,
			"name": "Passo Praderadego",
			"type": "pass",
			"coordinates": {
				"longitude": 12.108951,
				"latitude": 46.002865
			}
		},
		{
			"address": {
				"road": "Via Friuli",
				"municipality": "Chiusaforte",
				"region": "Friuli-Venezia Giulia"
			},
			"id": 77,
			"elevation": 1162,
			"name": "Sella Nevea",
			"type": "pass",
			"coordinates": {
				"longitude": 13.478122,
				"latitude": 46.390133
			}
		},
		{
			"address": {
				"road": "Via Nazionale",
				"municipality": "Caino",
				"region": "Lombardia"
			},
			"id": 78,
			"elevation": 574,
			"name": "Colli di Sant’Eusebio",
			"type": "pass",
			"coordinates": {
				"longitude": 10.361373,
				"latitude": 45.609566
			}
		},
		{
			"address": {
				"road": "Passo del Cuvignone, Strada Provinciale 8",
				"municipality": "Cittiglio",
				"region": "Lombardia"
			},
			"id": 79,
			"elevation": 1036,
			"name": "Passo del Cuvignone",
			"type": "pass",
			"coordinates": {
				"longitude": 8.670402,
				"latitude": 45.926945
			}
		},
		{
			"address": {
				"road": "SP32",
				"municipality": "Berbenno",
				"region": "Lombardia"
			},
			"id": 80,
			"elevation": 850,
			"name": "Forcella di Berbenno",
			"type": "pass",
			"coordinates": {
				"longitude": 9.58261,
				"latitude": 45.806503
			}
		},
		{
			"address": {
				"road": "SP27",
				"municipality": "Serina",
				"region": "Lombardia"
			},
			"id": 81,
			"elevation": 1039,
			"name": "Forcella di Valpiana",
			"type": "pass",
			"coordinates": {
				"longitude": 9.738672,
				"latitude": 45.882332
			}
		},
		{
			"address": {
				"road": "Strada Provinciale Nembro-Selvino-Aviatico",
				"municipality": "Selvino",
				"region": "Lombardia"
			},
			"id": 82,
			"elevation": 982,
			"name": "Sella Selvino",
			"type": "pass",
			"coordinates": {
				"longitude": 9.743543,
				"latitude": 45.777565
			}
		},
		{
			"address": {
				"road": "Via Martinelli",
				"municipality": "Aviatico",
				"region": "Lombardia"
			},
			"id": 83,
			"elevation": 1059,
			"name": "Passo di Ganda",
			"type": "pass",
			"coordinates": {
				"longitude": 9.793217,
				"latitude": 45.793411
			}
		},
		{
			"address": {
				"road": "Sella di Andalo, Strada Statale dei Laghi di Molveno e Tenno",
				"municipality": "Andalo",
				"region": "Trentino-Alto Adige"
			},
			"id": 84,
			"elevation": 1042,
			"name": "Sella di Andalo",
			"type": "pass",
			"coordinates": {
				"longitude": 10.998087,
				"latitude": 46.161167
			}
		},
		{
			"address": {
				"road": "Località Serrada, SP2",
				"municipality": "Folgaria",
				"region": "Trentino-Alto Adige"
			},
			"id": 85,
			"elevation": 1250,
			"name": "Sella di Serrada",
			"type": "pass",
			"coordinates": {
				"longitude": 11.153634,
				"latitude": 45.887932
			}
		},
		{
			"address": {
				"road": "Località Pianaccio Malghe",
				"municipality": "Vezza d'Oglio",
				"region": "Lombardia"
			},
			"id": 86,
			"elevation": 2120,
			"name": "Col Carette di Val Bighera",
			"type": "pass",
			"coordinates": {
				"longitude": 10.36339,
				"latitude": 46.256039
			}
		},
		{
			"address": {
				"road": "Località Lagasol/Guspessa",
				"municipality": "Sernio",
				"region": "Lombardia"
			},
			"id": 87,
			"elevation": 1824,
			"name": "Passo di Guspessa",
			"type": "pass",
			"coordinates": {
				"longitude": 10.239644,
				"latitude": 46.201279
			}
		},
		{
			"address": {
				"road": "Via di Fraele",
				"municipality": "Valdidentro",
				"region": "Lombardia"
			},
			"id": 88,
			"elevation": 1941,
			"name": "Passo Torri di Fraele",
			"type": "pass",
			"coordinates": {
				"longitude": 10.310583,
				"latitude": 46.502529
			}
		},
		{
			"address": {
				"road": "SP149",
				"municipality": "Crespano del Grappa",
				"region": "Veneto"
			},
			"id": 89,
			"elevation": 1775,
			"name": "Cima Grappa",
			"type": "peak",
			"coordinates": {
				"longitude": 11.801333,
				"latitude": 45.870975
			}
		},
		{
			"address": {
				"road": "SS51",
				"municipality": "Alpago",
				"region": "Veneto"
			},
			"id": 90,
			"elevation": 488,
			"name": "Sella Fadalto",
			"type": "pass",
			"coordinates": {
				"longitude": 12.336252,
				"latitude": 46.081207
			}
		},
		{
			"address": {
				"road": "Via Valcanale",
				"municipality": "Tarvisio",
				"region": "Friuli-Venezia Giulia"
			},
			"id": 91,
			"elevation": 816,
			"name": "Sella di Camporosso",
			"type": "pass",
			"coordinates": {
				"longitude": 13.518527,
				"latitude": 46.506912
			}
		},
		{
			"address": {
				"road": "Sella Somdogna",
				"municipality": "Dogna",
				"region": "Friuli-Venezia Giulia"
			},
			"id": 92,
			"elevation": 1397,
			"name": "Sella di Sompdogna",
			"type": "pass",
			"coordinates": {
				"longitude": 13.449519,
				"latitude": 46.461895
			}
		},
		{
			"address": {
				"road": "Passo del Cason di Lanza",
				"municipality": "Paularo",
				"region": "Friuli-Venezia Giulia"
			},
			"id": 93,
			"elevation": 1550,
			"name": "Passo del Cason di Lanza",
			"type": "pass",
			"coordinates": {
				"longitude": 13.170998,
				"latitude": 46.565891
			}
		},
		{
			"address": {
				"road": "Via Valcalda",
				"municipality": "Ravascletto",
				"region": "Friuli-Venezia Giulia"
			},
			"id": 94,
			"elevation": 958,
			"name": "Sella Valcalda",
			"type": "pass",
			"coordinates": {
				"longitude": 12.930672,
				"latitude": 46.523941
			}
		},
		{
			"address": {
				"road": "Rifugio Sorgenti del Piave, Strada Provinciale 22 Val Sesis",
				"municipality": "Sappada",
				"region": "Friuli-Venezia Giulia"
			},
			"id": 95,
			"elevation": 1835,
			"name": "Passo Col di Caneva",
			"type": "pass",
			"coordinates": {
				"longitude": 12.709079,
				"latitude": 46.62355
			}
		},
		{
			"address": {
				"road": "Sella di Interneppo, Viale Udine",
				"municipality": "Bordano",
				"region": "Friuli-Venezia Giulia"
			},
			"id": 96,
			"elevation": 315,
			"name": "Sella di Interneppo",
			"type": "pass",
			"coordinates": {
				"longitude": 13.089051,
				"latitude": 46.318275
			}
		},
		{
			"address": {
				"road": "Via Montecroce",
				"municipality": "Nimis",
				"region": "Friuli-Venezia Giulia"
			},
			"id": 97,
			"elevation": 267,
			"name": "Passo Montecroce",
			"type": "pass",
			"coordinates": {
				"longitude": 13.290185,
				"latitude": 46.19685
			}
		},
		{
			"address": {
				"road": "Kegelbergstraße",
				"municipality": "Vandoies",
				"region": "Trentino-Alto Adige"
			},
			"id": 98,
			"elevation": 1720,
			"name": "Kegelbergsattel",
			"type": "pass",
			"coordinates": {
				"longitude": 11.689453,
				"latitude": 46.838589
			}
		},
		{
			"address": {
				"road": "Via Coller",
				"municipality": "Funes",
				"region": "Trentino-Alto Adige"
			},
			"id": 99,
			"elevation": 1863,
			"name": "Passo di Eores - Rodella",
			"type": "pass",
			"coordinates": {
				"longitude": 11.770799,
				"latitude": 46.666534
			}
		},
		{
			"address": {
				"road": "Sella di Novale al Varco, LS/SP162",
				"municipality": "Vadena",
				"region": "Trentino-Alto Adige"
			},
			"id": 100,
			"elevation": 382,
			"name": "Sella di Novale al Varco - Koyotenpass",
			"type": "pass",
			"coordinates": {
				"longitude": 11.282423,
				"latitude": 46.384449
			}
		},
		{
			"address": {
				"road": "Compatsch",
				"municipality": "Castelrotto",
				"region": "Trentino-Alto Adige"
			},
			"id": 101,
			"elevation": 1359,
			"name": "Alpe di Siusi",
			"type": "peak",
			"coordinates": {
				"longitude": 11.618042,
				"latitude": 46.540161
			}
		},
		{
			"address": {
				"road": "Prato Piazza",
				"municipality": "Dobbiaco",
				"region": "Trentino-Alto Adige"
			},
			"id": 102,
			"elevation": 2000,
			"name": "Passo Prato Piazza",
			"type": "pass",
			"coordinates": {
				"longitude": 12.178946,
				"latitude": 46.653797
			}
		},
		{
			"address": {
				"road": "SP49",
				"municipality": "Auronzo di Cadore",
				"region": "Veneto"
			},
			"id": 103,
			"elevation": 1757,
			"name": "Col di Misurina",
			"type": "pass",
			"coordinates": {
				"longitude": 12.250614,
				"latitude": 46.57674
			}
		},
		{
			"address": {
				"road": "SP30",
				"municipality": "Santo Stefano di Cadore",
				"region": "Veneto"
			},
			"id": 104,
			"elevation": 1606,
			"name": "Forcella Zovo",
			"type": "pass",
			"coordinates": {
				"longitude": 12.591105,
				"latitude": 46.602573
			}
		},
		{
			"address": {
				"road": "SR355",
				"municipality": "Sappada",
				"region": "Friuli-Venezia Giulia"
			},
			"id": 105,
			"elevation": 1290,
			"name": "Cima Sappada",
			"type": "pass",
			"coordinates": {
				"longitude": 12.72131,
				"latitude": 46.569363
			}
		},
		{
			"address": {
				"road": "SP79",
				"municipality": "Castello Tesino",
				"region": "Trentino-Alto Adige"
			},
			"id": 106,
			"elevation": 1630,
			"name": "Passo di Monte Agaro",
			"type": "pass",
			"coordinates": {
				"longitude": 11.64451,
				"latitude": 46.10606
			}
		},
		{
			"address": {
				"road": "Strada per Naole",
				"municipality": "San Zeno di Montagna",
				"region": "Veneto"
			},
			"id": 107,
			"elevation": 1675,
			"name": "Bocchetta di Naole",
			"type": "pass",
			"coordinates": {
				"longitude": 10.767792,
				"latitude": 45.659698
			}
		},
		{
			"address": {
				"road": "Strada Provinciale dei Francolini",
				"municipality": "Lastebasse",
				"region": "Veneto"
			},
			"id": 108,
			"elevation": 1557,
			"name": "Bocchetta degli Alpini",
			"type": "pass",
			"coordinates": {
				"longitude": 11.302925,
				"latitude": 45.878677
			}
		},
		{
			"address": {
				"road": "Strada Statale dello Stelvio",
				"municipality": "Bormio",
				"region": "Trentino-Alto Adige"
			},
			"id": 109,
			"elevation": 2758,
			"name": "Passo dello Stelvio",
			"type": "pass",
			"coordinates": {
				"longitude": 10.453362,
				"latitude": 46.528519
			}
		},
		{
			"address": {
				"road": "SP251",
				"municipality": "Pontechianale",
				"region": "Piemonte"
			},
			"id": 110,
			"elevation": 2748,
			"name": "Colle dell'Agnello",
			"type": "pass",
			"coordinates": {
				"longitude": 6.9795,
				"latitude": 44.6838
			}
		},
		{
			"address": {
				"road": "Strada Provinciale del Passo Gavia",
				"municipality": "Valfurva",
				"region": "Lombardia"
			},
			"id": 111,
			"elevation": 2621,
			"name": "Passo Gavia",
			"type": "pass",
			"coordinates": {
				"longitude": 10.4879,
				"latitude": 46.343601
			}
		},
		{
			"address": {
				"road": "SP50",
				"municipality": "Ceresole Reale",
				"region": "Valle d'Aosta"
			},
			"id": 112,
			"elevation": 2612,
			"name": "Colle del Nivolet",
			"type": "peak",
			"coordinates": {
				"longitude": 7.140512,
				"latitude": 45.478912
			}
		},
		{
			"address": {
				"road": "Passo Umbrail",
				"municipality": "Valdidentro",
				"region": "Lombardia"
			},
			"id": 113,
			"elevation": 2503,
			"name": "Umbrail Pass",
			"type": "pass",
			"coordinates": {
				"longitude": 10.433149,
				"latitude": 46.541508
			}
		},
		{
			"address": {
				"road": "Colle Fauniera",
				"municipality": "Castelmagno",
				"region": "Piemonte"
			},
			"id": 114,
			"elevation": 2475,
			"name": "Colle Fauniera",
			"type": "pass",
			"coordinates": {
				"longitude": 7.121887,
				"latitude": 44.385712
			}
		},
		{
			"address": {
				"road": "SS27",
				"municipality": "Saint-Rhémy-en-Bosses",
				"region": "Valle d'Aosta"
			},
			"id": 115,
			"elevation": 2473,
			"name": "Colle del Gran San Bernardo",
			"type": "pass",
			"coordinates": {
				"longitude": 7.165575,
				"latitude": 45.868977
			}
		},
		{
			"address": {
				"road": "Colle Blegier, Strada dell'Assietta",
				"municipality": "Sauze d'Oulx",
				"region": "Piemonte"
			},
			"id": 116,
			"elevation": 2381,
			"name": "Colle di Blegier",
			"type": "pass",
			"coordinates": {
				"longitude": 6.916366,
				"latitude": 45.037201
			}
		},
		{
			"address": {
				"road": "Colle di Sampeyre",
				"municipality": "Stroppo",
				"region": "Piemonte"
			},
			"id": 117,
			"elevation": 2294,
			"name": "Colle di Sampeyre",
			"type": "pass",
			"coordinates": {
				"longitude": 7.119,
				"latitude": 44.550999
			}
		},
		{
			"address": {
				"road": "SS301",
				"municipality": "Livigno",
				"region": "Lombardia"
			},
			"id": 118,
			"elevation": 2291,
			"name": "Passo del Foscagno",
			"type": "pass",
			"coordinates": {
				"longitude": 10.209,
				"latitude": 46.494999
			}
		},
		{
			"address": {
				"road": "Passo Sella",
				"municipality": "Selva di Val Gardena",
				"region": "Trentino-Alto Adige"
			},
			"id": 119,
			"elevation": 2240,
			"name": "Passo Sella",
			"type": "pass",
			"coordinates": {
				"longitude": 11.7667,
				"latitude": 46.5084
			}
		},
		{
			"address": {
				"road": "SR48",
				"municipality": "Canazei",
				"region": "Trentino-Alto Adige"
			},
			"id": 120,
			"elevation": 2239,
			"name": "Passo Pordoi",
			"type": "pass",
			"coordinates": {
				"longitude": 11.812277,
				"latitude": 46.487518
			}
		},
		{
			"address": {
				"road": "SP638",
				"municipality": "Colle Santa Lucia",
				"region": "Veneto"
			},
			"id": 121,
			"elevation": 2236,
			"name": "Passo Giau",
			"type": "pass",
			"coordinates": {
				"longitude": 12.0498,
				"latitude": 46.483799
			}
		},
		{
			"address": {
				"road": "SS508",
				"municipality": "Campo di Trens",
				"region": "Trentino-Alto Adige"
			},
			"id": 122,
			"elevation": 2214,
			"name": "Passo di Pennes",
			"type": "pass",
			"coordinates": {
				"longitude": 11.43887,
				"latitude": 46.819534
			}
		},
		{
			"address": {
				"road": "Passo Eira, Via del Foscagno",
				"municipality": "Livigno",
				"region": "Lombardia"
			},
			"id": 123,
			"elevation": 2208,
			"name": "Passo dell'Eira",
			"type": "pass",
			"coordinates": {
				"longitude": 10.1652,
				"latitude": 46.5382
			}
		},
		{
			"address": {
				"road": "Passo Valparola, SP24",
				"municipality": "Livinallongo del Col di Lana",
				"region": "Trentino-Alto Adige"
			},
			"id": 124,
			"elevation": 2192,
			"name": "Passo Valparola",
			"type": "pass",
			"coordinates": {
				"longitude": 11.988873,
				"latitude": 46.531704
			}
		},
		{
			"address": {
				"road": "Strada Provinciale del Colle delle Finestre",
				"municipality": "Meana di Susa",
				"region": "Piemonte"
			},
			"id": 125,
			"elevation": 2176,
			"name": "Colle delle Finestre",
			"type": "pass",
			"coordinates": {
				"longitude": 7.052536,
				"latitude": 45.07428
			}
		},
		{
			"address": {
				"road": "Passo Gardena, Streda de Gherdëina",
				"municipality": "Corvara in Badia",
				"region": "Trentino-Alto Adige"
			},
			"id": 126,
			"elevation": 2121,
			"name": "Passo Gardena",
			"type": "pass",
			"coordinates": {
				"longitude": 11.8084,
				"latitude": 46.549801
			}
		},
		{
			"address": {
				"road": "SR48",
				"municipality": "Cortina d'Ampezzo",
				"region": "Veneto"
			},
			"id": 127,
			"elevation": 2109,
			"name": "Passo Falzarego",
			"type": "pass",
			"coordinates": {
				"longitude": 12.0094,
				"latitude": 46.518902
			}
		},
		{
			"address": {
				"road": "Via Passo Giovo",
				"municipality": "San Leonardo in Passiria",
				"region": "Trentino-Alto Adige"
			},
			"id": 128,
			"elevation": 2094,
			"name": "Passo del Giovo",
			"type": "pass",
			"coordinates": {
				"longitude": 11.314,
				"latitude": 46.839001
			}
		},
		{
			"address": {
				"road": "SS25",
				"municipality": "Moncenisio",
				"region": "Piemonte"
			},
			"id": 129,
			"elevation": 2083,
			"name": "Colle del Moncenisio",
			"type": "pass",
			"coordinates": {
				"longitude": 6.962886,
				"latitude": 45.205143
			}
		},
		{
			"address": {
				"road": "SP641",
				"municipality": "Rocca Pietore",
				"region": "Trentino-Alto Adige"
			},
			"id": 130,
			"elevation": 2057,
			"name": "Passo Fedaia",
			"type": "pass",
			"coordinates": {
				"longitude": 11.889,
				"latitude": 46.453499
			}
		},
		{
			"address": {
				"road": "Via Passo Stalle",
				"municipality": "Rasun - Anterselva",
				"region": "Trentino-Alto Adige"
			},
			"id": 131,
			"elevation": 2052,
			"name": "Passo Stalle",
			"type": "pass",
			"coordinates": {
				"longitude": 12.199287,
				"latitude": 46.887798
			}
		},
		{
			"address": {
				"road": "Passo Manghen, Strada Provinciale del Passo del Manghen",
				"municipality": "Telve",
				"region": "Trentino-Alto Adige"
			},
			"id": 132,
			"elevation": 2047,
			"name": "Passo Manghen",
			"type": "pass",
			"coordinates": {
				"longitude": 11.4415,
				"latitude": 46.173199
			}
		},
		{
			"address": {
				"road": "Strada Statale 23 del Colle di Sestriere",
				"municipality": "Sestriere",
				"region": "Piemonte"
			},
			"id": 133,
			"elevation": 2035,
			"name": "Colle del Sestriere",
			"type": "pass",
			"coordinates": {
				"longitude": 6.880059,
				"latitude": 44.956841
			}
		},
		{
			"address": {
				"road": "SP81",
				"municipality": "Falcade",
				"region": "Trentino-Alto Adige"
			},
			"id": 134,
			"elevation": 2033,
			"name": "Passo Valles",
			"type": "pass",
			"coordinates": {
				"longitude": 11.8007,
				"latitude": 46.3386
			}
		},
		{
			"address": {
				"road": "Passo delle Erbe, LS/SP29",
				"municipality": "San Martino in Badia",
				"region": "Trentino-Alto Adige"
			},
			"id": 135,
			"elevation": 2003,
			"name": "Passo delle Erbe",
			"type": "pass",
			"coordinates": {
				"longitude": 11.8142,
				"latitude": 46.674999
			}
		},
		{
			"address": {
				"road": "Passo San Marco, Strada provinciale 8 del Passo San Marco",
				"municipality": "Averara",
				"region": "Lombardia"
			},
			"id": 136,
			"elevation": 1985,
			"name": "Passo di San Marco",
			"type": "pass",
			"coordinates": {
				"longitude": 9.622607,
				"latitude": 46.046936
			}
		},
		{
			"address": {
				"road": "SS50",
				"municipality": "Primiero San Martino di Castrozza",
				"region": "Trentino-Alto Adige"
			},
			"id": 137,
			"elevation": 1970,
			"name": "Passo Rolle",
			"type": "pass",
			"coordinates": {
				"longitude": 11.7869,
				"latitude": 46.296398
			}
		},
		{
			"address": {
				"road": "SS346",
				"municipality": "Moena",
				"region": "Trentino-Alto Adige"
			},
			"id": 138,
			"elevation": 1918,
			"name": "Passo di San Pellegrino",
			"type": "pass",
			"coordinates": {
				"longitude": 11.794,
				"latitude": 46.3783
			}
		},
		{
			"address": {
				"road": "Colle San Carlo",
				"municipality": "Morgex",
				"region": "Valle d'Aosta"
			},
			"id": 139,
			"elevation": 1911,
			"name": "Colle San Carlo",
			"type": "pass",
			"coordinates": {
				"longitude": 6.992276,
				"latitude": 45.742348
			}
		},
		{
			"address": {
				"road": "Strada Forti",
				"municipality": "Limone Piemonte",
				"region": "Piemonte"
			},
			"id": 140,
			"elevation": 1908,
			"name": "Colle di Tenda",
			"type": "pass",
			"coordinates": {
				"longitude": 7.5637,
				"latitude": 44.157101
			}
		},
		{
			"address": {
				"road": "SPBS345",
				"municipality": "Breno",
				"region": "Lombardia"
			},
			"id": 141,
			"elevation": 1892,
			"name": "Passo di Crocedomini",
			"type": "pass",
			"coordinates": {
				"longitude": 10.4094,
				"latitude": 45.9072
			}
		},
		{
			"address": {
				"road": "SS42",
				"municipality": "Vermiglio",
				"region": "Trentino-Alto Adige"
			},
			"id": 142,
			"elevation": 1883,
			"name": "Passo del Tonale",
			"type": "pass",
			"coordinates": {
				"longitude": 10.582,
				"latitude": 46.2579
			}
		},
		{
			"address": {
				"road": "Passo del Mortirolo, Strada del Mortirolo",
				"municipality": "Monno",
				"region": "Lombardia"
			},
			"id": 143,
			"elevation": 1852,
			"name": "Passo del Mortirolo",
			"type": "pass",
			"coordinates": {
				"longitude": 10.299125,
				"latitude": 46.248131
			}
		},
		{
			"address": {
				"road": "SPBG294",
				"municipality": "Schilpario",
				"region": "Lombardia"
			},
			"id": 144,
			"elevation": 1828,
			"name": "Passo di Vivione",
			"type": "pass",
			"coordinates": {
				"longitude": 10.19527,
				"latitude": 46.033352
			}
		},
		{
			"address": {
				"road": "Strada Regionale 48 delle Dolomiti",
				"municipality": "Cortina d'Ampezzo",
				"region": "Veneto"
			},
			"id": 145,
			"elevation": 1805,
			"name": "Passo Tre Croci",
			"type": "pass",
			"coordinates": {
				"longitude": 12.200918,
				"latitude": 46.557354
			}
		},
		{
			"address": {
				"road": "Via Carezza",
				"municipality": "Nova Levante",
				"region": "Trentino-Alto Adige"
			},
			"id": 146,
			"elevation": 1741,
			"name": "Passo di Costalunga",
			"type": "pass",
			"coordinates": {
				"longitude": 11.6085,
				"latitude": 46.404499
			}
		},
		{
			"address": {
				"road": "Strada Statale 239 di Campiglio",
				"municipality": "Pinzolo",
				"region": "Trentino-Alto Adige"
			},
			"id": 147,
			"elevation": 1681,
			"name": "Passo Campo Carlo Magno",
			"type": "pass",
			"coordinates": {
				"longitude": 10.838742,
				"latitude": 46.241959
			}
		},
		{
			"address": {
				"road": "Via Maniva",
				"municipality": "Collio",
				"region": "Lombardia"
			},
			"id": 148,
			"elevation": 1660,
			"name": "Passo di Maniva",
			"type": "pass",
			"coordinates": {
				"longitude": 10.407637,
				"latitude": 45.823608
			}
		},
		{
			"address": {
				"road": "Passo di Monte Croce di Comélico, Via San Giuseppe",
				"municipality": "Sesto",
				"region": "Veneto"
			},
			"id": 149,
			"elevation": 1636,
			"name": "Passo di Monte Croce di Comelico",
			"type": "pass",
			"coordinates": {
				"longitude": 12.420173,
				"latitude": 46.655975
			}
		},
		{
			"address": {
				"road": "SP347",
				"municipality": "La Valle Agordina",
				"region": "Veneto"
			},
			"id": 150,
			"elevation": 1605,
			"name": "Passo Duran",
			"type": "pass",
			"coordinates": {
				"longitude": 12.095175,
				"latitude": 46.323193
			}
		},
		{
			"address": {
				"road": "Passo di Pramollo, SP110",
				"municipality": "Pontebba",
				"region": "Friuli-Venezia Giulia"
			},
			"id": 151,
			"elevation": 1530,
			"name": "Passo di Pramollo",
			"type": "pass",
			"coordinates": {
				"longitude": 13.27569,
				"latitude": 46.55991
			}
		},
		{
			"address": {
				"road": "SS51",
				"municipality": "Cortina d'Ampezzo",
				"region": "Trentino-Alto Adige"
			},
			"id": 152,
			"elevation": 1529,
			"name": "Passo Cimabanche",
			"type": "pass",
			"coordinates": {
				"longitude": 12.1826,
				"latitude": 46.619999
			}
		},
		{
			"address": {
				"road": "Passo Palade, Strada Statale 238 del Passo di Palade",
				"municipality": "Senale-San Felice",
				"region": "Trentino-Alto Adige"
			},
			"id": 153,
			"elevation": 1518,
			"name": "Passo Palade",
			"type": "pass",
			"coordinates": {
				"longitude": 11.111814,
				"latitude": 46.529522
			}
		},
		{
			"address": {
				"road": "Via Passo Maniva",
				"municipality": "Anfo",
				"region": "Lombardia"
			},
			"id": 154,
			"elevation": 1450,
			"name": "Passo di Baremone",
			"type": "pass",
			"coordinates": {
				"longitude": 10.463834,
				"latitude": 45.79081
			}
		},
		{
			"address": {
				"road": "SP178",
				"municipality": "Pamparato",
				"region": "Piemonte"
			},
			"id": 155,
			"elevation": 1381,
			"name": "Colle di Casotto",
			"type": "pass",
			"coordinates": {
				"longitude": 7.944403,
				"latitude": 44.216602
			}
		},
		{
			"address": {
				"road": "Via San Valentino",
				"municipality": "Brennero",
				"region": "Trentino-Alto Adige"
			},
			"id": 156,
			"elevation": 1374,
			"name": "Passo del Brennero",
			"type": "pass",
			"coordinates": {
				"longitude": 11.506548,
				"latitude": 47.006962
			}
		},
		{
			"address": {
				"road": "Passo Cereda, SS347",
				"municipality": "Primiero San Martino di Castrozza",
				"region": "Trentino-Alto Adige"
			},
			"id": 157,
			"elevation": 1372,
			"name": "Passo di Cereda",
			"type": "pass",
			"coordinates": {
				"longitude": 11.90403,
				"latitude": 46.192844
			}
		},
		{
			"address": {
				"road": "SS42",
				"municipality": "Ruffrè-Mendola",
				"region": "Trentino-Alto Adige"
			},
			"id": 158,
			"elevation": 1363,
			"name": "Passo della Mendola",
			"type": "pass",
			"coordinates": {
				"longitude": 11.2072,
				"latitude": 46.416801
			}
		},
		{
			"address": {
				"road": "SS52",
				"municipality": "Paluzza",
				"region": "Friuli-Venezia Giulia"
			},
			"id": 159,
			"elevation": 1360,
			"name": "Passo di Monte Croce Carnico",
			"type": "pass",
			"coordinates": {
				"longitude": 12.944909,
				"latitude": 46.603664
			}
		},
		{
			"address": {
				"road": "Via Zumello",
				"municipality": "Torre de' Busi",
				"region": "Lombardia"
			},
			"id": 160,
			"elevation": 1340,
			"name": "Valico di Valcava",
			"type": "pass",
			"coordinates": {
				"longitude": 9.513907,
				"latitude": 45.785332
			}
		},
		{
			"address": {
				"road": "Parco Naturale Col del Lys",
				"municipality": "Rubiana",
				"region": "Piemonte"
			},
			"id": 161,
			"elevation": 1311,
			"name": "Colle del Lys",
			"type": "pass",
			"coordinates": {
				"longitude": 7.385516,
				"latitude": 45.176197
			}
		},
		{
			"address": {
				"road": "Strada Provinciale della Val Seriana",
				"municipality": "Colere",
				"region": "Lombardia"
			},
			"id": 162,
			"elevation": 1297,
			"name": "Passo della Presolana",
			"type": "pass",
			"coordinates": {
				"longitude": 10.098444,
				"latitude": 45.929195
			}
		},
		{
			"address": {
				"road": "Colle San Bernardo di Mendatica, Via Provinciale Monesi",
				"municipality": "Mendatica",
				"region": "Liguria"
			},
			"id": 163,
			"elevation": 1265,
			"name": "Colle San Bernardo di Mendatica",
			"type": "pass",
			"coordinates": {
				"longitude": 7.784328,
				"latitude": 44.084904
			}
		},
		{
			"address": {
				"road": "Colle di Caprauna, SP216",
				"municipality": "Chiazzuola",
				"region": "Piemonte"
			},
			"id": 164,
			"elevation": 1375,
			"name": "Colle Caprauna",
			"type": "pass",
			"coordinates": {
				"longitude": 7.929726,
				"latitude": 44.108143
			}
		},
		{
			"address": {
				"road": "Via Val Pusteria",
				"municipality": "Dobbiaco",
				"region": "Trentino-Alto Adige"
			},
			"id": 165,
			"elevation": 1209,
			"name": "Sella di Dobbiaco",
			"type": "pass",
			"coordinates": {
				"longitude": 12.2303,
				"latitude": 46.730301
			}
		},
		{
			"address": {
				"road": "SP46",
				"municipality": "Oneta",
				"region": "Lombardia"
			},
			"id": 166,
			"elevation": 1264,
			"name": "Passo di Zambla",
			"type": "pass",
			"coordinates": {
				"longitude": 9.797798,
				"latitude": 45.88696
			}
		},
		{
			"address": {
				"road": "Via Magnolta",
				"municipality": "Aprica",
				"region": "Lombardia"
			},
			"id": 167,
			"elevation": 1175,
			"name": "Passo dell'Aprica",
			"type": "pass",
			"coordinates": {
				"longitude": 10.149393,
				"latitude": 46.153408
			}
		},
		{
			"address": {
				"road": "Passo del Predil, SS54",
				"municipality": "Tarvisio",
				"region": "Friuli-Venezia Giulia"
			},
			"id": 168,
			"elevation": 1156,
			"name": "Passo del Predil",
			"type": "pass",
			"coordinates": {
				"longitude": 13.5781,
				"latitude": 46.418598
			}
		},
		{
			"address": {
				"road": "Colle del Melogno, Strada provinciale del Colle del Melogno",
				"municipality": "Calizzano",
				"region": "Liguria"
			},
			"id": 169,
			"elevation": 1028,
			"name": "Colle del Melogno",
			"type": "pass",
			"coordinates": {
				"longitude": 8.197115,
				"latitude": 44.230247
			}
		},
		{
			"address": {
				"road": "SS54",
				"municipality": "Tarvisio",
				"region": "Friuli-Venezia Giulia"
			},
			"id": 170,
			"elevation": 854,
			"name": "Valico di Fusine-Rateče",
			"type": "pass",
			"coordinates": {
				"longitude": 13.7037,
				"latitude": 46.4972
			}
		},
		{
			"address": {
				"road": "SR646",
				"municipality": "Resia",
				"region": "Friuli-Venezia Giulia"
			},
			"id": 171,
			"elevation": 851,
			"name": "Valico di Tanamea",
			"type": "pass",
			"coordinates": {
				"longitude": 13.355384,
				"latitude": 46.308758
			}
		},
		{
			"address": {
				"road": "Strada provinciale 41 Vallassina",
				"municipality": "Magreglio",
				"region": "Lombardia"
			},
			"id": 172,
			"elevation": 754,
			"name": "Colle del Ghisallo",
			"type": "pass",
			"coordinates": {
				"longitude": 9.267697,
				"latitude": 45.924377
			}
		},
		{
			"address": {
				"road": "Passo del Durone, Strada Provinciale del Durone",
				"municipality": "Bleggio Superiore",
				"region": "Trentino-Alto Adige"
			},
			"id": 173,
			"elevation": 1000,
			"name": "Passo Duron",
			"type": "pass",
			"coordinates": {
				"longitude": 10.79613,
				"latitude": 46.036861
			}
		},
		{
			"address": {
				"road": "Passo Del Ballino, Strada Statale 421 dei Laghi di Molveno e Tenno",
				"municipality": "Fiavè",
				"region": "Trentino-Alto Adige"
			},
			"id": 174,
			"elevation": 765,
			"name": "Passo Del Ballino",
			"type": "pass",
			"coordinates": {
				"longitude": 10.819881,
				"latitude": 45.974449
			}
		},
		{
			"address": {
				"road": "Colle San Bernardo, Strada provinciale del Colle di San Bernardo",
				"municipality": "Garessio",
				"region": "Piemonte"
			},
			"id": 175,
			"elevation": 957,
			"name": "Colle San Bernardo",
			"type": "pass",
			"coordinates": {
				"longitude": 8.047287,
				"latitude": 44.177345
			}
		},
		{
			"address": {
				"road": "Colle San Bartolomeo, SP21",
				"municipality": "Cesio",
				"region": "Liguria"
			},
			"id": 176,
			"elevation": 620,
			"name": "Colle San Bartolomeo",
			"type": "pass",
			"coordinates": {
				"longitude": 7.952103,
				"latitude": 44.010227
			}
		},
		{
			"address": {
				"road": "SP17",
				"municipality": "Molini di Triora",
				"region": "Liguria"
			},
			"id": 177,
			"elevation": 1387,
			"name": "Passo della Teglia",
			"type": "pass",
			"coordinates": {
				"longitude": 7.833737,
				"latitude": 43.994949
			}
		},
		{
			"address": {
				"road": "Passo della Colma / Colma di Civiasco",
				"municipality": "Civiasco",
				"region": "Piemonte"
			},
			"id": 178,
			"elevation": 942,
			"name": "Passo della Colma",
			"type": "pass",
			"coordinates": {
				"longitude": 8.322272,
				"latitude": 45.809193
			}
		},
		{
			"address": {
				"road": "Panoramica Zegna",
				"municipality": "Mosso",
				"region": "Piemonte"
			},
			"id": 179,
			"elevation": 1331,
			"name": "Bocchetta di Margosio",
			"type": "pass",
			"coordinates": {
				"longitude": 8.127351,
				"latitude": 45.6674
			}
		},
		{
			"address": {
				"road": "Via Mottarone",
				"municipality": "Omegna",
				"region": "Piemonte"
			},
			"id": 180,
			"elevation": 1492,
			"name": "Mottarone",
			"type": "peak",
			"coordinates": {
				"longitude": 8.450777,
				"latitude": 45.880135
			}
		},
		{
			"address": {
				"road": "Via Ompio",
				"municipality": "San Bernardino Verbano",
				"region": "Piemonte"
			},
			"id": 181,
			"elevation": 940,
			"name": "Alpe Ompio",
			"type": "peak",
			"coordinates": {
				"longitude": 8.470016,
				"latitude": 45.976444
			}
		},
		{
			"address": {
				"road": "Via al Memoriale degli Alpini",
				"municipality": "Miazzina",
				"region": "Piemonte"
			},
			"id": 182,
			"elevation": 877,
			"name": "Alpe Pala",
			"type": "peak",
			"coordinates": {
				"longitude": 8.524446,
				"latitude": 45.984947
			}
		},
		{
			"address": {
				"road": "strada Luigi Cadorna",
				"municipality": "Oggebbio",
				"region": "Piemonte"
			},
			"id": 183,
			"elevation": 1243,
			"name": "Piancavallo",
			"type": "pass",
			"coordinates": {
				"longitude": 8.628516,
				"latitude": 46.009361
			}
		},
		{
			"address": {
				"road": "Il Colle Trarego",
				"municipality": "Trarego Viggiona",
				"region": "Piemonte"
			},
			"id": 184,
			"elevation": 1238,
			"name": "Alpe Colle",
			"type": "pass",
			"coordinates": {
				"longitude": 8.625935,
				"latitude": 46.024532
			}
		},
		{
			"address": {
				"road": "Il Colle Trarego",
				"municipality": "Trarego Viggiona",
				"region": "Piemonte"
			},
			"id": 185,
			"elevation": 1050,
			"name": "Alpe Trunno",
			"type": "pass",
			"coordinates": {
				"longitude": 8.627272,
				"latitude": 46.036003
			}
		},
		{
			"address": {
				"road": "Il Colle Trarego",
				"municipality": "Trarego Viggiona",
				"region": "Piemonte"
			},
			"id": 186,
			"elevation": 1116,
			"name": "Monte Carza",
			"type": "pass",
			"coordinates": {
				"longitude": 8.671566,
				"latitude": 46.041283
			}
		},
		{
			"address": {
				"road": "SP5dir",
				"municipality": "Maccagno con Pino e Veddasca",
				"region": "Lombardia"
			},
			"id": 187,
			"elevation": 1179,
			"name": "Passo Forcora",
			"type": "pass",
			"coordinates": {
				"longitude": 8.777733,
				"latitude": 46.074764
			}
		},
		{
			"address": {
				"road": "Via Sighignola",
				"municipality": "Alta Valle Intelvi",
				"region": "Lombardia"
			},
			"id": 188,
			"elevation": 1320,
			"name": "Balcone d'Italia",
			"type": "peak",
			"coordinates": {
				"longitude": 8.992234,
				"latitude": 45.968178
			}
		},
		{
			"address": {
				"road": "Via per il Bisbino",
				"municipality": "Cernobbio",
				"region": "Lombardia"
			},
			"id": 189,
			"elevation": 1325,
			"name": "Monte Bisbino",
			"type": "peak",
			"coordinates": {
				"longitude": 9.06584,
				"latitude": 45.872814
			}
		},
		{
			"address": {
				"road": "Strada provinciale 44 del Piano del Tivano",
				"municipality": "Zelbio",
				"region": "Lombardia"
			},
			"id": 190,
			"elevation": 957,
			"name": "Pian del Tivano",
			"type": "pass",
			"coordinates": {
				"longitude": 9.21209,
				"latitude": 45.896526
			}
		},
		{
			"address": {
				"road": "Strada provinciale 44 del Piano del Tivano",
				"municipality": "Sormano",
				"region": "Lombardia"
			},
			"id": 191,
			"elevation": 1124,
			"name": "Colma di Sormano",
			"type": "pass",
			"coordinates": {
				"longitude": 9.229197,
				"latitude": 45.882801
			}
		},
		{
			"address": {
				"road": "Strada Provinciale 65 di Esino",
				"municipality": "Esino Lario",
				"region": "Lombardia"
			},
			"id": 192,
			"elevation": 1204,
			"name": "Passo Agueglio",
			"type": "pass",
			"coordinates": {
				"longitude": 9.32618,
				"latitude": 46.009197
			}
		},
		{
			"address": {
				"road": "Piazzale Daniele Chiappa",
				"municipality": "Ballabio",
				"region": "Lombardia"
			},
			"id": 193,
			"elevation": 1280,
			"name": "Piani dei Resinelli",
			"type": "peak",
			"coordinates": {
				"longitude": 9.39367,
				"latitude": 45.905441
			}
		},
		{
			"address": {
				"road": "Strada Provinciale 62 della Valsassina",
				"municipality": "Ballabio",
				"region": "Lombardia"
			},
			"id": 194,
			"elevation": 728,
			"name": "Colle di Balisio",
			"type": "pass",
			"coordinates": {
				"longitude": 9.436376,
				"latitude": 45.918083
			}
		},
		{
			"address": {
				"road": "Passo Culmine San Pietro, Via Valtaleggio",
				"municipality": "Cassina Valsassina",
				"region": "Lombardia"
			},
			"id": 195,
			"elevation": 1258,
			"name": "Culmine San Pietro",
			"type": "pass",
			"coordinates": {
				"longitude": 9.493899,
				"latitude": 45.902218
			}
		},
		{
			"address": {
				"road": "Strada Provinciale 63 di Morterone",
				"municipality": "Morterone",
				"region": "Lombardia"
			},
			"id": 196,
			"elevation": 1148,
			"name": "Forcella di Olino",
			"type": "pass",
			"coordinates": {
				"longitude": 9.474619,
				"latitude": 45.888443
			}
		},
		{
			"address": {
				"road": "Via Forcella Alta",
				"municipality": "Carenno",
				"region": "Lombardia"
			},
			"id": 197,
			"elevation": 1276,
			"name": "Passo del Pertus",
			"type": "pass",
			"coordinates": {
				"longitude": 9.492488,
				"latitude": 45.806156
			}
		},
		{
			"address": {
				"road": "Forcella di Bura, SP24",
				"municipality": "Val Brembilla",
				"region": "Lombardia"
			},
			"id": 198,
			"elevation": 884,
			"name": "Forcella di Bura",
			"type": "pass",
			"coordinates": {
				"longitude": 9.584177,
				"latitude": 45.860252
			}
		},
		{
			"address": {
				"road": "Strada Provinciale 39",
				"municipality": "Gaverina Terme",
				"region": "Lombardia"
			},
			"id": 199,
			"elevation": 763,
			"name": "Passo del Colle Gallo",
			"type": "pass",
			"coordinates": {
				"longitude": 9.87386,
				"latitude": 45.753529
			}
		},
		{
			"address": {
				"road": "SP79",
				"municipality": "Grone",
				"region": "Lombardia"
			},
			"id": 200,
			"elevation": 1070,
			"name": "Colli di San Fermo",
			"type": "pass",
			"coordinates": {
				"longitude": 9.955271,
				"latitude": 45.733082
			}
		},
		{
			"address": {
				"road": "Passo dei Tre Termini, Via Roma",
				"municipality": "Polaveno",
				"region": "Lombardia"
			},
			"id": 201,
			"elevation": 681,
			"name": "Passo dei Tre Termin",
			"type": "pass",
			"coordinates": {
				"longitude": 10.106134,
				"latitude": 45.660488
			}
		},
		{
			"address": {
				"road": "SP58",
				"municipality": "Capovalle",
				"region": "Lombardia"
			},
			"id": 202,
			"elevation": 1020,
			"name": "Passo San Rocco",
			"type": "pass",
			"coordinates": {
				"longitude": 10.538571,
				"latitude": 45.748764
			}
		},
		{
			"address": {
				"road": "SP56",
				"municipality": "Capovalle",
				"region": "Lombardia"
			},
			"id": 203,
			"elevation": 1100,
			"name": "Passo Fobbia",
			"type": "pass",
			"coordinates": {
				"longitude": 10.504367,
				"latitude": 45.726166
			}
		},
		{
			"address": {
				"road": "Passo del Cavallino della Fobbia",
				"municipality": "Capovalle",
				"region": "Lombardia"
			},
			"id": 204,
			"elevation": 1090,
			"name": "Passo Cavallino",
			"type": "pass",
			"coordinates": {
				"longitude": 10.518311,
				"latitude": 45.728321
			}
		},
		{
			"address": {
				"road": "Passo dell'Ampola, SS240",
				"municipality": "Ledro",
				"region": "Trentino-Alto Adige"
			},
			"id": 205,
			"elevation": 1388,
			"name": "Passo Ampola",
			"type": "pass",
			"coordinates": {
				"longitude": 10.645452,
				"latitude": 45.864372
			}
		},
		{
			"address": {
				"road": "SP127",
				"municipality": "Tremosine sul Garda",
				"region": "Trentino-Alto Adige"
			},
			"id": 206,
			"elevation": 1694,
			"name": "Passo del Tremalzo",
			"type": "pass",
			"coordinates": {
				"longitude": 10.690792,
				"latitude": 45.836739
			}
		},
		{
			"address": {
				"road": "SS237",
				"municipality": "Sella Giudicarie",
				"region": "Trentino-Alto Adige"
			},
			"id": 207,
			"elevation": 819,
			"name": "Sella di Bondo",
			"type": "pass",
			"coordinates": {
				"longitude": 10.69129,
				"latitude": 45.997135
			}
		},
		{
			"address": {
				"road": "Strada di Vason",
				"municipality": "Trento",
				"region": "Trentino-Alto Adige"
			},
			"id": 208,
			"elevation": 1650,
			"name": "Monte Bondone",
			"type": "pass",
			"coordinates": {
				"longitude": 11.058007,
				"latitude": 46.039146
			}
		},
		{
			"address": {
				"road": "Passo Bordala, Strada Provinciale Bordala",
				"municipality": "Ronzo-Chienis",
				"region": "Trentino-Alto Adige"
			},
			"id": 209,
			"elevation": 1250,
			"name": "Passo Bordala",
			"type": "pass",
			"coordinates": {
				"longitude": 10.977101,
				"latitude": 45.907143
			}
		},
		{
			"address": {
				"road": "Passo San Giovanni, SS240",
				"municipality": "Nago-Torbole",
				"region": "Trentino-Alto Adige"
			},
			"id": 210,
			"elevation": 287,
			"name": "Passo San Giovanni",
			"type": "pass",
			"coordinates": {
				"longitude": 10.906629,
				"latitude": 45.873802
			}
		},
		{
			"address": {
				"road": "Strada Provinciale di Camposilvano",
				"municipality": "Vallarsa",
				"region": "Trentino-Alto Adige"
			},
			"id": 211,
			"elevation": 1163,
			"name": "Pian delle Fugazze",
			"type": "pass",
			"coordinates": {
				"longitude": 11.172881,
				"latitude": 45.76022
			}
		},
		{
			"address": {
				"road": "Passo Xon, SP246 di Recoaro",
				"municipality": "Recoaro Terme",
				"region": "Veneto"
			},
			"id": 212,
			"elevation": 671,
			"name": "Passo Xon",
			"type": "pass",
			"coordinates": {
				"longitude": 11.221139,
				"latitude": 45.720287
			}
		},
		{
			"address": {
				"road": "Via Zovo",
				"municipality": "Valdagno",
				"region": "Veneto"
			},
			"id": 213,
			"elevation": 631,
			"name": "Passo dello Zovo",
			"type": "pass",
			"coordinates": {
				"longitude": 11.309577,
				"latitude": 45.683998
			}
		},
		{
			"address": {
				"road": "Nigerstraße - Via Nigra",
				"municipality": "Tires",
				"region": "Trentino-Alto Adige"
			},
			"id": 214,
			"elevation": 1690,
			"name": "Passo Nigra",
			"type": "pass",
			"coordinates": {
				"longitude": 11.585829,
				"latitude": 46.455952
			}
		},
		{
			"address": {
				"road": "Passo Oclini",
				"municipality": "Aldino",
				"region": "Trentino-Alto Adige"
			},
			"id": 215,
			"elevation": 1989,
			"name": "Passo di Oclini",
			"type": "pass",
			"coordinates": {
				"longitude": 11.45153,
				"latitude": 46.347225
			}
		},
		{
			"address": {
				"road": "SP215dir",
				"municipality": "Varena",
				"region": "Trentino-Alto Adige"
			},
			"id": 216,
			"elevation": 1431,
			"name": "Passo di Pramadiccio",
			"type": "pass",
			"coordinates": {
				"longitude": 11.48627,
				"latitude": 46.322956
			}
		},
		{
			"address": {
				"road": "Passo di Lavazè, Strada Statale 620 del Passo di Lavazè",
				"municipality": "Varena",
				"region": "Trentino-Alto Adige"
			},
			"id": 217,
			"elevation": 1805,
			"name": "Passo di Lavazè",
			"type": "pass",
			"coordinates": {
				"longitude": 11.492579,
				"latitude": 46.354675
			}
		},
		{
			"address": {
				"road": "SP461 R",
				"municipality": "Bobbio",
				"region": "Emilia-Romagna"
			},
			"id": 218,
			"elevation": 1149,
			"name": "Passo del Penice",
			"type": "pass",
			"coordinates": {
				"longitude": 9.328015,
				"latitude": 44.797245
			}
		},
		{
			"address": {
				"road": "Via della Pineta",
				"municipality": "Brallo di Pregola",
				"region": "Lombardia"
			},
			"id": 219,
			"elevation": 951,
			"name": "Passo del Brallo",
			"type": "pass",
			"coordinates": {
				"longitude": 9.283705,
				"latitude": 44.739815
			}
		},
		{
			"address": {
				"road": "Str. Piani di Lesima - Zerba",
				"municipality": "Zerba",
				"region": "Lombardia"
			},
			"id": 220,
			"elevation": 1368,
			"name": "Passo del Giovà",
			"type": "pass",
			"coordinates": {
				"longitude": 9.265938,
				"latitude": 44.684032
			}
		},
		{
			"address": {
				"road": "SP81",
				"municipality": "Vobbia",
				"region": "Liguria"
			},
			"id": 221,
			"elevation": 1129,
			"name": "Valico di San Fermo",
			"type": "pass",
			"coordinates": {
				"longitude": 9.102945,
				"latitude": 44.610146
			}
		},
		{
			"address": {
				"road": "SP163",
				"municipality": "Fraconalto",
				"region": "Liguria"
			},
			"id": 222,
			"elevation": 578,
			"name": "Passo della Castagnola",
			"type": "pass",
			"coordinates": {
				"longitude": 8.906779,
				"latitude": 44.59893
			}
		},
		{
			"address": {
				"road": "Strada Provinciale di Val Nure",
				"municipality": "Ferriere",
				"region": "Emilia-Romagna"
			},
			"id": 223,
			"elevation": 1405,
			"name": "Passo dello Zovallo",
			"type": "pass",
			"coordinates": {
				"longitude": 9.520512,
				"latitude": 44.573654
			}
		},
		{
			"address": {
				"road": "Cippo di confine Provincie Genova - Parma, SP654",
				"municipality": "Santo Stefano d'Aveto",
				"region": "Liguria"
			},
			"id": 224,
			"elevation": 1485,
			"name": "Passo del Tomarlo",
			"type": "pass",
			"coordinates": {
				"longitude": 9.501328,
				"latitude": 44.536194
			}
		},
		{
			"address": {
				"road": "Strada statale dei Giovi",
				"municipality": "Mignanego",
				"region": "Liguria"
			},
			"id": 225,
			"elevation": 472,
			"name": "Passo dei Giovi",
			"type": "pass",
			"coordinates": {
				"longitude": 8.936906,
				"latitude": 44.552315
			}
		},
		{
			"address": {
				"road": "Alta Via dei Monti Liguri",
				"municipality": "Campomorone",
				"region": "Liguria"
			},
			"id": 226,
			"elevation": 772,
			"name": "Passo della Bocchetta",
			"type": "pass",
			"coordinates": {
				"longitude": 8.887768,
				"latitude": 44.550694
			}
		},
		{
			"address": {
				"road": "Strada provinciale n. 48 del Fregarolo",
				"municipality": "Fontanigorda",
				"region": "Liguria"
			},
			"id": 227,
			"elevation": 1203,
			"name": "Passo di Fregarolo",
			"type": "pass",
			"coordinates": {
				"longitude": 9.319239,
				"latitude": 44.517319
			}
		},
		{
			"address": {
				"road": "Passo della Crocetta di Orero",
				"municipality": "Casella",
				"region": "Liguria"
			},
			"id": 228,
			"elevation": 468,
			"name": "Crocetta d'Orero",
			"type": "pass",
			"coordinates": {
				"longitude": 8.987761,
				"latitude": 44.519825
			}
		},
		{
			"address": {
				"road": "Strada Provinciale di Neirone",
				"municipality": "Torriglia",
				"region": "Liguria"
			},
			"id": 229,
			"elevation": 1040,
			"name": "Passo del Portello",
			"type": "pass",
			"coordinates": {
				"longitude": 9.17882,
				"latitude": 44.495708
			}
		},
		{
			"address": {
				"road": "Via Tercesi",
				"municipality": "Torriglia",
				"region": "Liguria"
			},
			"id": 230,
			"elevation": 674,
			"name": "Passo della Scoffera",
			"type": "pass",
			"coordinates": {
				"longitude": 9.121184,
				"latitude": 44.482544
			}
		},
		{
			"address": {
				"road": "Strada Provinciale della Scoglina",
				"municipality": "Favale di Malvaro",
				"region": "Liguria"
			},
			"id": 231,
			"elevation": 926,
			"name": "Passo della Scoglina",
			"type": "pass",
			"coordinates": {
				"longitude": 9.250059,
				"latitude": 44.472408
			}
		},
		{
			"address": {
				"road": "Passo della Forcella, SP586",
				"municipality": "Borzonasca",
				"region": "Liguria"
			},
			"id": 232,
			"elevation": 875,
			"name": "Passo della Forcella",
			"type": "pass",
			"coordinates": {
				"longitude": 9.335461,
				"latitude": 44.462547
			}
		},
		{
			"address": {
				"road": "Nuova galleria del Turchino",
				"municipality": "Mele",
				"region": "Liguria"
			},
			"id": 233,
			"elevation": 588,
			"name": "Passo del Turchino",
			"type": "pass",
			"coordinates": {
				"longitude": 8.734517,
				"latitude": 44.486404
			}
		},
		{
			"address": {
				"road": "Strada Provinciale del Faiallo",
				"municipality": "Tiglieto",
				"region": "Liguria"
			},
			"id": 234,
			"elevation": 1044,
			"name": "Passo del Faiallo",
			"type": "pass",
			"coordinates": {
				"longitude": 8.667655,
				"latitude": 44.461872
			}
		},
		{
			"address": {
				"road": "Strada Provinciale del Colle di Centocroci",
				"municipality": "Varese Ligure",
				"region": "Liguria"
			},
			"id": 235,
			"elevation": 1055,
			"name": "Passo di Centocroci",
			"type": "pass",
			"coordinates": {
				"longitude": 9.623594,
				"latitude": 44.421337
			}
		},
		{
			"address": {
				"road": "SP49",
				"municipality": "Mezzanego",
				"region": "Liguria"
			},
			"id": 236,
			"elevation": 956,
			"name": "Passo del Bocco",
			"type": "pass",
			"coordinates": {
				"longitude": 9.442449,
				"latitude": 44.416279
			}
		},
		{
			"address": {
				"road": "SP58",
				"municipality": "Coreglia Ligure",
				"region": "Liguria"
			},
			"id": 237,
			"elevation": 599,
			"name": "Passo della Crocetta",
			"type": "pass",
			"coordinates": {
				"longitude": 9.24242,
				"latitude": 44.384666
			}
		},
		{
			"address": {
				"road": "Aveto, Strada provinciale della Valgraveglia",
				"municipality": "Ne",
				"region": "Liguria"
			},
			"id": 238,
			"elevation": 892,
			"name": "Passo del Biscia",
			"type": "pass",
			"coordinates": {
				"longitude": 9.489312,
				"latitude": 44.365219
			}
		},
		{
			"address": {
				"road": "SP5",
				"municipality": "Zignago",
				"region": "Liguria"
			},
			"id": 239,
			"elevation": 1047,
			"name": "Passo del Rastello",
			"type": "pass",
			"coordinates": {
				"longitude": 9.733458,
				"latitude": 44.328667
			}
		},
		{
			"address": {
				"road": "Colle di Santa Libera, Via Montenotte",
				"municipality": "Altare",
				"region": "Liguria"
			},
			"id": 240,
			"elevation": 441,
			"name": "Colle di Santa Libera",
			"type": "pass",
			"coordinates": {
				"longitude": 8.34682,
				"latitude": 44.343739
			}
		},
		{
			"address": {
				"road": "SS29",
				"municipality": "Altare",
				"region": "Liguria"
			},
			"id": 241,
			"elevation": 459,
			"name": "Bocchetta di Altare - Colle di Cadibona",
			"type": "pass",
			"coordinates": {
				"longitude": 8.358107,
				"latitude": 44.3349
			}
		},
		{
			"address": {
				"road": "Strada Provinciale delle Cento Croci",
				"municipality": "Castiglione Chiavarese",
				"region": "Liguria"
			},
			"id": 242,
			"elevation": 545,
			"name": "Colle di Velva",
			"type": "pass",
			"coordinates": {
				"longitude": 9.55759,
				"latitude": 44.283737
			}
		},
		{
			"address": {
				"road": "Via Aurelia",
				"municipality": "Deiva Marina",
				"region": "Liguria"
			},
			"id": 243,
			"elevation": 615,
			"name": "Passo del Bracco",
			"type": "pass",
			"coordinates": {
				"longitude": 9.56789,
				"latitude": 44.249687
			}
		},
		{
			"address": {
				"road": "Strada Statale 62 della Cisa",
				"municipality": "Pontremoli",
				"region": "Toscana"
			},
			"id": 244,
			"elevation": 1045,
			"name": "Passo della Cisa",
			"type": "pass",
			"coordinates": {
				"longitude": 9.928207,
				"latitude": 44.471458
			}
		},
		{
			"address": {
				"road": "Passo di Cirone",
				"municipality": "Corniglio",
				"region": "Emilia-Romagna"
			},
			"id": 245,
			"elevation": 1255,
			"name": "Passo di Cirone",
			"type": "pass",
			"coordinates": {
				"longitude": 10.003266,
				"latitude": 44.438774
			}
		},
		{
			"address": {
				"road": "Strada Provinciale Massese",
				"municipality": "Comano",
				"region": "Toscana"
			},
			"id": 246,
			"elevation": 1200,
			"name": "Passo del Lagastrello",
			"type": "pass",
			"coordinates": {
				"longitude": 10.129652,
				"latitude": 44.340271
			}
		},
		{
			"address": {
				"road": "Strada Statale 63 del Valico del Cerreto",
				"municipality": "Ventasso",
				"region": "Emilia-Romagna"
			},
			"id": 247,
			"elevation": 1261,
			"name": "Passo del Cerreto",
			"type": "pass",
			"coordinates": {
				"longitude": 10.217028,
				"latitude": 44.304195
			}
		},
		{
			"address": {
				"road": "Via Pradarena",
				"municipality": "Ventasso",
				"region": "Emilia-Romagna"
			},
			"id": 248,
			"elevation": 1579,
			"name": "Passo della Pradarena",
			"type": "pass",
			"coordinates": {
				"longitude": 10.30067,
				"latitude": 44.285366
			}
		},
		{
			"address": {
				"road": "Passo delle Radici, Via Radici",
				"municipality": "Frassinoro",
				"region": "Emilia-Romagna"
			},
			"id": 249,
			"elevation": 1529,
			"name": "Passo delle Radici",
			"type": "pass",
			"coordinates": {
				"longitude": 10.488853,
				"latitude": 44.208542
			}
		},
		{
			"address": {
				"road": "SR65",
				"municipality": "Firenzuola",
				"region": "Toscana"
			},
			"id": 250,
			"elevation": 968,
			"name": "Passo della Raticosa",
			"type": "pass",
			"coordinates": {
				"longitude": 11.338234,
				"latitude": 44.17334
			}
		},
		{
			"address": {
				"road": "Via Uccelliera",
				"municipality": "Abetone Cutigliano",
				"region": "Toscana"
			},
			"id": 251,
			"elevation": 1388,
			"name": "Passo dell'Abetone",
			"type": "pass",
			"coordinates": {
				"longitude": 10.665064,
				"latitude": 44.146
			}
		},
		{
			"address": {
				"road": "Via Capanna Tassoni",
				"municipality": "Fanano",
				"region": "Emilia-Romagna"
			},
			"id": 252,
			"elevation": 1737,
			"name": "Passo della Croce Arcana",
			"type": "pass",
			"coordinates": {
				"longitude": 10.777888,
				"latitude": 44.132202
			}
		},
		{
			"address": {
				"road": "Strada comunale della Foce",
				"municipality": "Pievepelago",
				"region": "Emilia-Romagna"
			},
			"id": 253,
			"elevation": 1711,
			"name": "Foce a Giovo",
			"type": "peak",
			"coordinates": {
				"longitude": 10.609617,
				"latitude": 44.11834
			}
		},
		{
			"address": {
				"road": "Strada Provinciale Acquerino",
				"municipality": "Sambuca Pistoiese",
				"region": "Emilia-Romagna"
			},
			"id": 254,
			"elevation": 660,
			"name": "Passo di Lentula",
			"type": "pass",
			"coordinates": {
				"longitude": 11.043406,
				"latitude": 44.095352
			}
		},
		{
			"address": {
				"road": "Via Carbonera",
				"municipality": "Carrara",
				"region": "Toscana"
			},
			"id": 255,
			"elevation": 226,
			"name": "Valico de La Foce",
			"type": "pass",
			"coordinates": {
				"longitude": 10.108881,
				"latitude": 44.066376
			}
		},
		{
			"address": {
				"road": "Passo di Monte Oppio, Via Giacomo Matteotti",
				"municipality": "San Marcello Piteglio",
				"region": "Toscana"
			},
			"id": 256,
			"elevation": 821,
			"name": "Passo di Monte Oppio",
			"type": "pass",
			"coordinates": {
				"longitude": 10.836296,
				"latitude": 44.042809
			}
		},
		{
			"address": {
				"road": "Via Bolognese",
				"municipality": "Pistoia",
				"region": "Toscana"
			},
			"id": 257,
			"elevation": 932,
			"name": "Passo della Porretta",
			"type": "pass",
			"coordinates": {
				"longitude": 10.931439,
				"latitude": 44.02877
			}
		},
		{
			"address": {
				"road": "SR65",
				"municipality": "Firenzuola",
				"region": "Toscana"
			},
			"id": 258,
			"elevation": 903,
			"name": "Passo della Futa",
			"type": "pass",
			"coordinates": {
				"longitude": 11.277552,
				"latitude": 44.09375
			}
		},
		{
			"address": {
				"road": "Strada Provinciale 503 Passo del Giogo",
				"municipality": "Scarperia e San Piero",
				"region": "Toscana"
			},
			"id": 259,
			"elevation": 882,
			"name": "Passo del Giogo",
			"type": "pass",
			"coordinates": {
				"longitude": 11.387715,
				"latitude": 44.046417
			}
		},
		{
			"address": {
				"road": "SR302",
				"municipality": "Borgo San Lorenzo",
				"region": "Toscana"
			},
			"id": 260,
			"elevation": 913,
			"name": "Passo della Colla di Casaglia",
			"type": "pass",
			"coordinates": {
				"longitude": 11.484146,
				"latitude": 44.038647
			}
		},
		{
			"address": {
				"road": "Strada Statale Tosco-Romagnola",
				"municipality": "San Godenzo",
				"region": "Toscana"
			},
			"id": 261,
			"elevation": 907,
			"name": "Passo del Muraglione",
			"type": "pass",
			"coordinates": {
				"longitude": 11.65555,
				"latitude": 43.93264
			}
		},
		{
			"address": {
				"road": "La Calla, Strada Provinciale 4 del Bidente",
				"municipality": "Pratovecchio Stia",
				"region": "Toscana"
			},
			"id": 262,
			"elevation": 1296,
			"name": "Passo la Calla",
			"type": "pass",
			"coordinates": {
				"longitude": 11.742668,
				"latitude": 43.859718
			}
		},
		{
			"address": {
				"road": "SP142",
				"municipality": "Bagno di Romagna",
				"region": "Toscana"
			},
			"id": 263,
			"elevation": 1173,
			"name": "Passo dei Mandrioli",
			"type": "pass",
			"coordinates": {
				"longitude": 11.91512,
				"latitude": 43.797605
			}
		},
		{
			"address": {
				"road": "Passo della Consuma, Strada Regionale della Consuma",
				"municipality": "Montemignaio",
				"region": "Toscana"
			},
			"id": 264,
			"elevation": 1050,
			"name": "Passo della Consuma",
			"type": "pass",
			"coordinates": {
				"longitude": 11.601992,
				"latitude": 43.782932
			}
		},
		{
			"address": {
				"road": "Strada Regionale 258 Marecchia",
				"municipality": "Pieve Santo Stefano",
				"region": "Toscana"
			},
			"id": 265,
			"elevation": 983,
			"name": "Passo di Viamaggio",
			"type": "pass",
			"coordinates": {
				"longitude": 12.116547,
				"latitude": 43.6824
			}
		},
		{
			"address": {
				"road": "SP61",
				"municipality": "Borgo Pace",
				"region": "Marche"
			},
			"id": 266,
			"elevation": 751,
			"name": "Passo dello Spugna",
			"type": "pass",
			"coordinates": {
				"longitude": 12.277822,
				"latitude": 43.677929
			}
		},
		{
			"address": {
				"road": "Valico di Bocca Trabaria, Strada Statale 73 bis di Bocca Trabaria",
				"municipality": "Borgo Pace",
				"region": "Marche"
			},
			"id": 267,
			"elevation": 1049,
			"name": "Bocca Trabaria",
			"type": "pass",
			"coordinates": {
				"longitude": 12.235637,
				"latitude": 43.595249
			}
		},
		{
			"address": {
				"road": "Strada Regionale 257 Apecchiese",
				"municipality": "Città di Castello",
				"region": "Umbria"
			},
			"id": 268,
			"elevation": 730,
			"name": "Bocca Serriola",
			"type": "pass",
			"coordinates": {
				"longitude": 12.356958,
				"latitude": 43.516285
			}
		},
		{
			"address": {
				"road": "SS3",
				"municipality": "Scheggia e Pascelupo",
				"region": "Umbria"
			},
			"id": 269,
			"elevation": 632,
			"name": "Passo della Scheggia",
			"type": "pass",
			"coordinates": {
				"longitude": 12.658997,
				"latitude": 43.411064
			}
		},
		{
			"address": {
				"road": "SR298",
				"municipality": "Gubbio",
				"region": "Umbria"
			},
			"id": 270,
			"elevation": 780,
			"name": "Passo Madonna della Cima",
			"type": "pass",
			"coordinates": {
				"longitude": 12.60413,
				"latitude": 43.378546
			}
		},
		{
			"address": {
				"road": "Passo della Cerventosa, Via Luca Signorelli",
				"municipality": "Cortona",
				"region": "Toscana"
			},
			"id": 271,
			"elevation": 748,
			"name": "Passo di Cerventosa",
			"type": "pass",
			"coordinates": {
				"longitude": 12.057195,
				"latitude": 43.292263
			}
		},
		{
			"address": {
				"road": "Strada Regionale 416 del Niccone",
				"municipality": "Lisciano Niccone",
				"region": "Umbria"
			},
			"id": 272,
			"elevation": 612,
			"name": "Valico Gosparini",
			"type": "pass",
			"coordinates": {
				"longitude": 12.106934,
				"latitude": 43.234947
			}
		},
		{
			"address": {
				"road": "Strada Regionale 361 Septempedana",
				"municipality": "Nocera Umbra",
				"region": "Marche"
			},
			"id": 273,
			"elevation": 818,
			"name": "Passo Cornello",
			"type": "pass",
			"coordinates": {
				"longitude": 12.85778,
				"latitude": 43.125294
			}
		},
		{
			"address": {
				"road": "Colfiorito, Strada Statale 77 della Val di Chienti",
				"municipality": "Foligno",
				"region": "Umbria"
			},
			"id": 274,
			"elevation": 821,
			"name": "Valico di Colfiorito",
			"type": "pass",
			"coordinates": {
				"longitude": 12.858553,
				"latitude": 43.002701
			}
		},
		{
			"address": {
				"road": "Rifugio del Fargno",
				"municipality": "Bolognola",
				"region": "Marche"
			},
			"id": 275,
			"elevation": 1833,
			"name": "Forcella del Fargno",
			"type": "pass",
			"coordinates": {
				"longitude": 13.206103,
				"latitude": 42.95435
			}
		},
		{
			"address": {
				"road": "SR319",
				"municipality": "Sellano",
				"region": "Umbria"
			},
			"id": 276,
			"elevation": 828,
			"name": "Valico del Soglio",
			"type": "pass",
			"coordinates": {
				"longitude": 12.896801,
				"latitude": 42.905095
			}
		},
		{
			"address": {
				"road": "Forca di Gualdo, SP136",
				"municipality": "Castelsantangelo sul Nera",
				"region": "Marche"
			},
			"id": 277,
			"elevation": 1496,
			"name": "Forca di Gualdo",
			"type": "pass",
			"coordinates": {
				"longitude": 13.190331,
				"latitude": 42.858761
			}
		},
		{
			"address": {
				"road": "Forca di Ancarano, Strada provinciale di Norcia",
				"municipality": "Norcia",
				"region": "Umbria"
			},
			"id": 278,
			"elevation": 1008,
			"name": "Forca d'Ancarano",
			"type": "pass",
			"coordinates": {
				"longitude": 13.117161,
				"latitude": 42.819897
			}
		},
		{
			"address": {
				"road": "Strada Provinciale 89 Valfluvione",
				"municipality": "Arquata del Tronto",
				"region": "Marche"
			},
			"id": 279,
			"elevation": 1170,
			"name": "Passo del Galluccio",
			"type": "pass",
			"coordinates": {
				"longitude": 13.306117,
				"latitude": 42.809223
			}
		},
		{
			"address": {
				"road": "Strada Provinciale 34 Forca di Presta",
				"municipality": "Arquata del Tronto",
				"region": "Marche"
			},
			"id": 280,
			"elevation": 1550,
			"name": "Forca di Presta",
			"type": "pass",
			"coordinates": {
				"longitude": 13.25861,
				"latitude": 42.789352
			}
		},
		{
			"address": {
				"road": "Strada Statale 685 delle Tre Valli Umbre",
				"municipality": "Norcia",
				"region": "Umbria"
			},
			"id": 281,
			"elevation": 813,
			"name": "Forca di Santa Croce",
			"type": "pass",
			"coordinates": {
				"longitude": 13.13673,
				"latitude": 42.767555
			}
		},
		{
			"address": {
				"road": "Forca Canapine, Strada provinciale di Castelluccio",
				"municipality": "Norcia",
				"region": "Umbria"
			},
			"id": 282,
			"elevation": 1541,
			"name": "Forca Canapine",
			"type": "pass",
			"coordinates": {
				"longitude": 13.198957,
				"latitude": 42.748463
			}
		},
		{
			"address": {
				"road": "Strada provinciale di Norcia",
				"municipality": "Norcia",
				"region": "Umbria"
			},
			"id": 283,
			"elevation": 1227,
			"name": "Forca di Civita",
			"type": "pass",
			"coordinates": {
				"longitude": 13.119049,
				"latitude": 42.696629
			}
		},
		{
			"address": {
				"road": "Strada provinciale di Cascia",
				"municipality": "Cascia",
				"region": "Umbria"
			},
			"id": 284,
			"elevation": 1139,
			"name": "Forca di Chiavano",
			"type": "pass",
			"coordinates": {
				"longitude": 13.073215,
				"latitude": 42.668552
			}
		},
		{
			"address": {
				"road": "Passo della Somma, Strada Statale 3 Flaminia",
				"municipality": "Spoleto",
				"region": "Umbria"
			},
			"id": 285,
			"elevation": 680,
			"name": "Valico della Somma",
			"type": "pass",
			"coordinates": {
				"longitude": 12.728605,
				"latitude": 42.665871
			}
		},
		{
			"address": {
				"road": "Strada Provinciale 7 Boscomartese",
				"municipality": "Acquasanta Terme",
				"region": "Marche"
			},
			"id": 286,
			"elevation": 1073,
			"name": "Valico di San Paolo",
			"type": "pass",
			"coordinates": {
				"longitude": 13.448639,
				"latitude": 42.742851
			}
		},
		{
			"address": {
				"road": "SP51",
				"municipality": "Torricella Sicura",
				"region": "Abruzzo"
			},
			"id": 287,
			"elevation": 1478,
			"name": "Pietra Stretta",
			"type": "pass",
			"coordinates": {
				"longitude": 13.587221,
				"latitude": 42.713676
			}
		},
		{
			"address": {
				"road": "Strada provinciale Umbra 1° tronco",
				"municipality": "Cittareale",
				"region": "Lazio"
			},
			"id": 288,
			"elevation": 1270,
			"name": "Valico la Forca",
			"type": "pass",
			"coordinates": {
				"longitude": 13.137374,
				"latitude": 42.637623
			}
		},
		{
			"address": {
				"road": "Strada Statale 4 Via Salaria",
				"municipality": "Amatrice",
				"region": "Lazio"
			},
			"id": 289,
			"elevation": 1010,
			"name": "Passo della Torrita",
			"type": "pass",
			"coordinates": {
				"longitude": 13.224277,
				"latitude": 42.618137
			}
		},
		{
			"address": {
				"road": "Turistica del Terminillo",
				"municipality": "Micigliano",
				"region": "Lazio"
			},
			"id": 290,
			"elevation": 1901,
			"name": "Sella di Leonessa",
			"type": "pass",
			"coordinates": {
				"longitude": 13.00704,
				"latitude": 42.474438
			}
		},
		{
			"address": {
				"road": "Valico delle Capannelle, Strada Statale 80 del Gran Sasso d'Italia",
				"municipality": "Pizzoli",
				"region": "Abruzzo"
			},
			"id": 291,
			"elevation": 1300,
			"name": "Valico delle Capannelle",
			"type": "pass",
			"coordinates": {
				"longitude": 13.351081,
				"latitude": 42.459254
			}
		},
		{
			"address": {
				"road": "SP8",
				"municipality": "Farindola",
				"region": "Abruzzo"
			},
			"id": 292,
			"elevation": 1621,
			"name": "Vado di Sole",
			"type": "pass",
			"coordinates": {
				"longitude": 13.787456,
				"latitude": 42.395668
			}
		},
		{
			"address": {
				"road": "Strada Regionale 17 bis della Funivia del Gran Sasso e Campo Imperatore",
				"municipality": "Castel del Monte",
				"region": "Abruzzo"
			},
			"id": 293,
			"elevation": 1600,
			"name": "Valico Capo la Serra",
			"type": "pass",
			"coordinates": {
				"longitude": 13.749604,
				"latitude": 42.380863
			}
		},
		{
			"address": {
				"road": "Strada Statale 17 dell'Appennino Abruzzese e Appulo Sannitico",
				"municipality": "Antrodoco",
				"region": "Lazio"
			},
			"id": 294,
			"elevation": 1005,
			"name": "Sella di Corno",
			"type": "pass",
			"coordinates": {
				"longitude": 13.184023,
				"latitude": 42.363552
			}
		},
		{
			"address": {
				"road": "Strada Regionale 5 bis Vestina Sarentina",
				"municipality": "Ocre",
				"region": "Abruzzo"
			},
			"id": 295,
			"elevation": 1383,
			"name": "Valico di Rocca di Cambio",
			"type": "pass",
			"coordinates": {
				"longitude": 13.490915,
				"latitude": 42.249812
			}
		},
		{
			"address": {
				"road": "Strada Statale 584 di Lucoli",
				"municipality": "Lucoli",
				"region": "Abruzzo"
			},
			"id": 296,
			"elevation": 1570,
			"name": "Valico della Crocetta",
			"type": "pass",
			"coordinates": {
				"longitude": 13.415508,
				"latitude": 42.239956
			}
		},
		{
			"address": {
				"road": "Strada Statale 696 del Parco Regionale Sirente-Velino",
				"municipality": "Lucoli",
				"region": "Abruzzo"
			},
			"id": 297,
			"elevation": 1633,
			"name": "Valico la Chiesola",
			"type": "pass",
			"coordinates": {
				"longitude": 13.363838,
				"latitude": 42.239384
			}
		},
		{
			"address": {
				"road": "Strada dei Parchi",
				"municipality": "Tornimparte",
				"region": "Abruzzo"
			},
			"id": 298,
			"elevation": 1100,
			"name": "Passo di San Rocco",
			"type": "pass",
			"coordinates": {
				"longitude": 13.321009,
				"latitude": 42.249073
			}
		},
		{
			"address": {
				"road": "SP220",
				"municipality": "Pretoro",
				"region": "Abruzzo"
			},
			"id": 299,
			"elevation": 1306,
			"name": "Passo Lanciano",
			"type": "pass",
			"coordinates": {
				"longitude": 14.108139,
				"latitude": 42.188367
			}
		},
		{
			"address": {
				"road": "Strada Statale 487",
				"municipality": "Pacentro",
				"region": "Abruzzo"
			},
			"id": 300,
			"elevation": 1282,
			"name": "Passo di San Leonardo",
			"type": "pass",
			"coordinates": {
				"longitude": 14.030228,
				"latitude": 42.073254
			}
		},
		{
			"address": {
				"road": "Strada Statale 5 Via Tiburtina Valeria",
				"municipality": "Collarmele",
				"region": "Abruzzo"
			},
			"id": 301,
			"elevation": 1107,
			"name": "Forca Caruso",
			"type": "pass",
			"coordinates": {
				"longitude": 13.703728,
				"latitude": 42.063313
			}
		},
		{
			"address": {
				"road": "Strada Regionale 5 Via Tiburtina Valeria",
				"municipality": "Carsoli",
				"region": "Abruzzo"
			},
			"id": 302,
			"elevation": 1220,
			"name": "Valico di Monte Bove",
			"type": "pass",
			"coordinates": {
				"longitude": 13.201103,
				"latitude": 42.071087
			}
		},
		{
			"address": {
				"road": "Ex Strada Statale 84 Frentana",
				"municipality": "Palena",
				"region": "Abruzzo"
			},
			"id": 303,
			"elevation": 1276,
			"name": "Valico della Forchetta",
			"type": "pass",
			"coordinates": {
				"longitude": 14.108162,
				"latitude": 41.920929
			}
		},
		{
			"address": {
				"road": "SS83",
				"municipality": "Gioia dei Marsi",
				"region": "Abruzzo"
			},
			"id": 304,
			"elevation": 1400,
			"name": "Valico di Gioia Vecchio",
			"type": "pass",
			"coordinates": {
				"longitude": 13.730893,
				"latitude": 41.906109
			}
		},
		{
			"address": {
				"road": "Simbruina",
				"municipality": "Capistrello",
				"region": "Abruzzo"
			},
			"id": 305,
			"elevation": 1601,
			"name": "Serra Sant'Antonio",
			"type": "pass",
			"coordinates": {
				"longitude": 13.36843,
				"latitude": 41.91898
			}
		},
		{
			"address": {
				"road": "SS83",
				"municipality": "Gioia dei Marsi",
				"region": "Abruzzo"
			},
			"id": 306,
			"elevation": 1440,
			"name": "Passo del Diavolo",
			"type": "pass",
			"coordinates": {
				"longitude": 13.746128,
				"latitude": 41.875824
			}
		},
		{
			"address": {
				"road": "SR479",
				"municipality": "Scanno",
				"region": "Abruzzo"
			},
			"id": 307,
			"elevation": 1630,
			"name": "Valico di Monte Godi",
			"type": "pass",
			"coordinates": {
				"longitude": 13.928261,
				"latitude": 41.846931
			}
		},
		{
			"address": {
				"road": "Strada Regionale 509 di Forca d'Acero",
				"municipality": "San Donato Val di Comino",
				"region": "Lazio"
			},
			"id": 308,
			"elevation": 1530,
			"name": "Valico di Forca d'Acero",
			"type": "pass",
			"coordinates": {
				"longitude": 13.815565,
				"latitude": 41.751209
			}
		},
		{
			"address": {
				"road": "Strada Statale 17 dell'Appennino Abruzzese e Appulo Sannitico",
				"municipality": "Castel di Sangro",
				"region": "Abruzzo"
			},
			"id": 309,
			"elevation": 891,
			"name": "Bocca di Forlì",
			"type": "pass",
			"coordinates": {
				"longitude": 14.121466,
				"latitude": 41.731964
			}
		},
		{
			"address": {
				"road": "Strada Statale 17 dell'Appennino Abruzzese e Appulo Sannitico",
				"municipality": "Isernia",
				"region": "Molise"
			},
			"id": 310,
			"elevation": 684,
			"name": "Valico del Mocerone",
			"type": "pass",
			"coordinates": {
				"longitude": 14.21442,
				"latitude": 41.644569
			}
		},
		{
			"address": {
				"road": "SS87",
				"municipality": "Sepino",
				"region": "Molise"
			},
			"id": 311,
			"elevation": 552,
			"name": "Sella di Vinchiaturo",
			"type": "pass",
			"coordinates": {
				"longitude": 14.585794,
				"latitude": 41.452632
			}
		},
		{
			"address": {
				"road": "Via Variante; Via Martiri",
				"municipality": "Ariano Irpino",
				"region": "Campania"
			},
			"id": 312,
			"elevation": 600,
			"name": "Sella di Ariano",
			"type": "pass",
			"coordinates": {
				"longitude": 15.089035,
				"latitude": 41.150223
			}
		},
		{
			"address": {
				"road": "SS7",
				"municipality": "Arpaia",
				"region": "Campania"
			},
			"id": 313,
			"elevation": 297,
			"name": "Sella di Arpaia",
			"type": "pass",
			"coordinates": {
				"longitude": 14.551354,
				"latitude": 41.037785
			}
		},
		{
			"address": {
				"road": "Via Appia",
				"municipality": "Sant'Andrea di Conza",
				"region": "Campania"
			},
			"id": 314,
			"elevation": 697,
			"name": "Sella di Conza",
			"type": "pass",
			"coordinates": {
				"longitude": 15.302796,
				"latitude": 40.83836
			}
		},
		{
			"address": {
				"road": "SS166",
				"municipality": "Corleto Monforte",
				"region": "Campania"
			},
			"id": 315,
			"elevation": 932,
			"name": "Passo della Sentinella",
			"type": "pass",
			"coordinates": {
				"longitude": 15.417509,
				"latitude": 40.419441
			}
		},
		{
			"address": {
				"road": "SP263",
				"municipality": "Sangineto",
				"region": "Calabria"
			},
			"id": 316,
			"elevation": 744,
			"name": "Passo dello Scalone",
			"type": "pass",
			"coordinates": {
				"longitude": 15.940304,
				"latitude": 39.630051
			}
		},
		{
			"address": {
				"road": "SP35",
				"municipality": "San Lucido",
				"region": "Calabria"
			},
			"id": 317,
			"elevation": 979,
			"name": "Passo Crocetta",
			"type": "pass",
			"coordinates": {
				"longitude": 16.112738,
				"latitude": 39.320686
			}
		},
		{
			"address": {
				"road": "SP75",
				"municipality": "Mongiana",
				"region": "Calabria"
			},
			"id": 318,
			"elevation": 1353,
			"name": "Passo di Pietra Spada",
			"type": "pass",
			"coordinates": {
				"longitude": 16.351261,
				"latitude": 38.502872
			}
		},
		{
			"address": {
				"road": "SP5",
				"municipality": "Cinquefrondi",
				"region": "Calabria"
			},
			"id": 319,
			"elevation": 822,
			"name": "Passo della Limina",
			"type": "pass",
			"coordinates": {
				"longitude": 16.170931,
				"latitude": 38.385738
			}
		},
		{
			"address": {
				"road": "Valico dello Spino, Strada Provinciale 208 della Verna",
				"municipality": "Chiusi della Verna",
				"region": "Toscana"
			},
			"id": 320,
			"elevation": 1005,
			"name": "Valico dello Spino",
			"type": "pass",
			"coordinates": {
				"longitude": 11.961896,
				"latitude": 43.701374
			}
		},
		{
			"address": {
				"road": "Passo del Brattello",
				"municipality": "Pontremoli",
				"region": "Toscana"
			},
			"id": 321,
			"elevation": 950,
			"name": "Passo del Brattello",
			"type": "pass",
			"coordinates": {
				"longitude": 9.827623,
				"latitude": 44.457943
			}
		},
		{
			"address": {
				"road": "Strada Provinciale 623 del Passo Brasa",
				"municipality": "Castel d'Aiano",
				"region": "Emilia-Romagna"
			},
			"id": 322,
			"elevation": 895,
			"name": "Passo Brasa",
			"type": "pass",
			"coordinates": {
				"longitude": 10.99548,
				"latitude": 44.273819
			}
		},
		{
			"address": {
				"road": "Strada Provinciale Stia-Londa",
				"municipality": "Londa",
				"region": "Toscana"
			},
			"id": 323,
			"elevation": 955,
			"name": "Valico Croce ai Mori",
			"type": "pass",
			"coordinates": {
				"longitude": 11.635822,
				"latitude": 43.850563
			}
		},
		{
			"address": {
				"road": "SP164",
				"municipality": "Montella",
				"region": "Campania"
			},
			"id": 324,
			"elevation": 840,
			"name": "Valico delle Corci di Acerno",
			"type": "pass",
			"coordinates": {
				"longitude": 15.037381,
				"latitude": 40.778179
			}
		},
		{
			"address": {
				"road": "SP69",
				"municipality": "Fonni",
				"region": "Sardegna"
			},
			"id": 325,
			"elevation": 1246,
			"name": "Passo Corr'e Boi",
			"type": "pass",
			"coordinates": {
				"longitude": 9.358984,
				"latitude": 40.07523
			}
		},
		{
			"address": {
				"road": "Passo Tascusì, SP7",
				"municipality": "Desulo",
				"region": "Sardegna"
			},
			"id": 326,
			"elevation": 1245,
			"name": "Passo di Tascusì",
			"type": "pass",
			"coordinates": {
				"longitude": 9.231093,
				"latitude": 40.032066
			}
		},
		{
			"address": {
				"road": "Passo di Genna Silana, SS125",
				"municipality": "Urzulei",
				"region": "Sardegna"
			},
			"id": 327,
			"elevation": 1017,
			"name": "Passo Genna Silana",
			"type": "pass",
			"coordinates": {
				"longitude": 9.507954,
				"latitude": 40.158604
			}
		},
		{
			"address": {
				"road": "Passo di Caravai, SP69",
				"municipality": "Fonni",
				"region": "Sardegna"
			},
			"id": 328,
			"elevation": 1118,
			"name": "Passo Caravai",
			"type": "pass",
			"coordinates": {
				"longitude": 9.334321,
				"latitude": 40.097
			}
		},
		{
			"address": {
				"road": "SS128",
				"municipality": "Tonara",
				"region": "Sardegna"
			},
			"id": 329,
			"elevation": 917,
			"name": "Passo S'Isca De Sa Mela",
			"type": "pass",
			"coordinates": {
				"longitude": 9.14247,
				"latitude": 40.033676
			}
		},
		{
			"address": {
				"road": "SP61 bis",
				"municipality": "Belvì",
				"region": "Sardegna"
			},
			"id": 330,
			"elevation": 790,
			"name": "Passo S'Arcu",
			"type": "pass",
			"coordinates": {
				"longitude": 9.162372,
				"latitude": 39.96648
			}
		},
		{
			"address": {
				"road": "SS295",
				"municipality": "Aritzo",
				"region": "Sardegna"
			},
			"id": 331,
			"elevation": 1040,
			"name": "Valico Sa Casa",
			"type": "pass",
			"coordinates": {
				"longitude": 9.134528,
				"latitude": 39.918816
			}
		},
		{
			"address": {
				"road": "Strada provinciale Ponzone-Piancastagna",
				"municipality": "Ponzone",
				"region": "Piemonte"
			},
			"id": 332,
			"elevation": 762,
			"name": "Passo Bric Berton",
			"type": "pass",
			"coordinates": {
				"longitude": 8.531957,
				"latitude": 44.524261
			}
		},
		{
			"address": {
				"road": "Via Monte Beigua",
				"municipality": "Varazze",
				"region": "Liguria"
			},
			"id": 333,
			"elevation": 1287,
			"name": "Vetta Monte Beigua",
			"type": "peak",
			"coordinates": {
				"longitude": 8.563746,
				"latitude": 44.432869
			}
		},
		{
			"address": {
				"road": "Strada Provinciale Capanne di Marcarolo - Piani di Praglia",
				"municipality": "Ceranesi",
				"region": "Liguria"
			},
			"id": 334,
			"elevation": 840,
			"name": "Piani di Praglia",
			"type": "pass",
			"coordinates": {
				"longitude": 8.807151,
				"latitude": 44.515541
			}
		},
		{
			"address": {
				"road": "Passo delle Tre Strade, Strada Provinciale SPexSS461 del passo Penice",
				"municipality": "Menconico",
				"region": "Lombardia"
			},
			"id": 335,
			"elevation": 1101,
			"name": "Passo delle Tre Strade",
			"type": "pass",
			"coordinates": {
				"longitude": 9.313227,
				"latitude": 44.802059
			}
		},
		{
			"address": {
				"road": "SP207",
				"municipality": "Varzi",
				"region": "Lombardia"
			},
			"id": 336,
			"elevation": 735,
			"name": "Passo di Pietragavina",
			"type": "pass",
			"coordinates": {
				"longitude": 9.241571,
				"latitude": 44.837955
			}
		},
		{
			"address": {
				"road": "Passo del Carmine, SP201",
				"municipality": "Ruino",
				"region": "Lombardia"
			},
			"id": 337,
			"elevation": 619,
			"name": "Passo del Carmine",
			"type": "pass",
			"coordinates": {
				"longitude": 9.263728,
				"latitude": 44.914402
			}
		},
		{
			"address": {
				"road": "Passo Crocetta, SP20",
				"municipality": "Rocca Susella",
				"region": "Lombardia"
			},
			"id": 338,
			"elevation": 533,
			"name": "Passo Crocetta",
			"type": "pass",
			"coordinates": {
				"longitude": 9.100605,
				"latitude": 44.918816
			}
		},
		{
			"address": {
				"road": "Passo del Cerro, SP39",
				"municipality": "Bettola",
				"region": "Emilia-Romagna"
			},
			"id": 339,
			"elevation": 750,
			"name": "Passo del Cerro",
			"type": "pass",
			"coordinates": {
				"longitude": 9.551668,
				"latitude": 44.787029
			}
		},
		{
			"address": {
				"road": "SP57",
				"municipality": "Coli",
				"region": "Emilia-Romagna"
			},
			"id": 340,
			"elevation": 1151,
			"name": "Passo Santa Barbara",
			"type": "pass",
			"coordinates": {
				"longitude": 9.460537,
				"latitude": 44.731155
			}
		},
		{
			"address": {
				"road": "Passo della Caldarola, SP65",
				"municipality": "Piozzano",
				"region": "Emilia-Romagna"
			},
			"id": 341,
			"elevation": 756,
			"name": "Passo della Caldarola",
			"type": "pass",
			"coordinates": {
				"longitude": 9.443822,
				"latitude": 44.855164
			}
		},
		{
			"address": {
				"road": "Strada Provinciale del Penna",
				"municipality": "Santo Stefano d'Aveto",
				"region": "Liguria"
			},
			"id": 342,
			"elevation": 1452,
			"name": "Passo del Chiodo",
			"type": "pass",
			"coordinates": {
				"longitude": 9.494634,
				"latitude": 44.49675
			}
		},
		{
			"address": {
				"road": "Strada Provinciale 359 di Salsomaggiore e Bardi",
				"municipality": "Bedonia",
				"region": "Emilia-Romagna"
			},
			"id": 343,
			"elevation": 805,
			"name": "Passo di Montevaccà",
			"type": "pass",
			"coordinates": {
				"longitude": 9.60969,
				"latitude": 44.535294
			}
		},
		{
			"address": {
				"road": "Passo della Colla, SP66",
				"municipality": "Compiano",
				"region": "Emilia-Romagna"
			},
			"id": 344,
			"elevation": 996,
			"name": "Passo della Colla",
			"type": "pass",
			"coordinates": {
				"longitude": 9.681401,
				"latitude": 44.547573
			}
		},
		{
			"address": {
				"road": "Passo Santa Donna, SP21",
				"municipality": "Bardi",
				"region": "Emilia-Romagna"
			},
			"id": 345,
			"elevation": 952,
			"name": "Passo Santa Donna",
			"type": "pass",
			"coordinates": {
				"longitude": 9.732631,
				"latitude": 44.545235
			}
		},
		{
			"address": {
				"road": "Passo Sillara, SP74",
				"municipality": "Berceto",
				"region": "Emilia-Romagna"
			},
			"id": 346,
			"elevation": 1199,
			"name": "Passo del Silara",
			"type": "pass",
			"coordinates": {
				"longitude": 10.009232,
				"latitude": 44.480946
			}
		},
		{
			"address": {
				"road": "SP75",
				"municipality": "Monchio delle Corti",
				"region": "Emilia-Romagna"
			},
			"id": 347,
			"elevation": 1154,
			"name": "Passo di Ticchiano",
			"type": "pass",
			"coordinates": {
				"longitude": 10.11476,
				"latitude": 44.427849
			}
		},
		{
			"address": {
				"road": "Strada Provinciale della Faggiola",
				"municipality": "Palazzuolo sul Senio",
				"region": "Toscana"
			},
			"id": 348,
			"elevation": 950,
			"name": "Valico del Paretaio",
			"type": "pass",
			"coordinates": {
				"longitude": 11.500647,
				"latitude": 44.143536
			}
		},
		{
			"address": {
				"road": "Passo della Sambuca, Strada Provinciale 477 dell'Alpe di Casaglia",
				"municipality": "Palazzuolo sul Senio",
				"region": "Toscana"
			},
			"id": 349,
			"elevation": 1080,
			"name": "Passo della Sambuca",
			"type": "pass",
			"coordinates": {
				"longitude": 11.485541,
				"latitude": 44.072433
			}
		},
		{
			"address": {
				"road": "Cento Forche",
				"municipality": "Galeata",
				"region": "Emilia-Romagna"
			},
			"id": 350,
			"elevation": 551,
			"name": "Passo Centoforche",
			"type": "pass",
			"coordinates": {
				"longitude": 11.866001,
				"latitude": 44.03252
			}
		},
		{
			"address": {
				"road": "Forche",
				"municipality": "Galeata",
				"region": "Emilia-Romagna"
			},
			"id": 351,
			"elevation": 444,
			"name": "Passo Monte delle Forche",
			"type": "pass",
			"coordinates": {
				"longitude": 11.901046,
				"latitude": 44.012856
			}
		},
		{
			"address": {
				"road": "Passo del Carnaio, Via Spinello",
				"municipality": "Bagno di Romagna",
				"region": "Emilia-Romagna"
			},
			"id": 352,
			"elevation": 760,
			"name": "Passo del Carnaio",
			"type": "pass",
			"coordinates": {
				"longitude": 11.955839,
				"latitude": 43.894691
			}
		},
		{
			"address": {
				"road": "Rifugio Fangacci  Onorio Mellini, Strada Provinciale 124 dell'Eremo",
				"municipality": "Poppi",
				"region": "Toscana"
			},
			"id": 353,
			"elevation": 1228,
			"name": "Passo Fangacci",
			"type": "pass",
			"coordinates": {
				"longitude": 11.849629,
				"latitude": 43.809311
			}
		},
		{
			"address": {
				"road": "Via Cantoniera",
				"municipality": "Carpegna",
				"region": "Marche"
			},
			"id": 354,
			"elevation": 1007,
			"name": "Passo Cantoniera",
			"type": "pass",
			"coordinates": {
				"longitude": 12.298969,
				"latitude": 43.785603
			}
		},
		{
			"address": {
				"road": "Strada Provinciale Sestino Ca' Raffaello",
				"municipality": "Sestino",
				"region": "Toscana"
			},
			"id": 355,
			"elevation": 943,
			"name": "Passo della Petrella",
			"type": "pass",
			"coordinates": {
				"longitude": 12.267491,
				"latitude": 43.743671
			}
		},
		{
			"address": {
				"road": "Località La Cupa",
				"municipality": "Sestino",
				"region": "Toscana"
			},
			"id": 356,
			"elevation": 901,
			"name": "Valico di San Cristoforo",
			"type": "pass",
			"coordinates": {
				"longitude": 12.245998,
				"latitude": 43.716324
			}
		},
		{
			"address": {
				"road": "Via La Straniera",
				"municipality": "Verghereto",
				"region": "Emilia-Romagna"
			},
			"id": 357,
			"elevation": 1408,
			"name": "Valico del Monte Fumaiolo",
			"type": "pass",
			"coordinates": {
				"longitude": 12.072161,
				"latitude": 43.7897
			}
		},
		{
			"address": {
				"road": "Via Flaminia",
				"municipality": "Fermignano",
				"region": "Marche"
			},
			"id": 358,
			"elevation": 828,
			"name": "Passo del Furlo",
			"type": "pass",
			"coordinates": {
				"longitude": 12.721556,
				"latitude": 43.645695
			}
		},
		{
			"address": {
				"road": "Passo del Rospatoio, Strada Provinciale della Rocca di Crevole",
				"municipality": "Murlo",
				"region": "Toscana"
			},
			"id": 359,
			"elevation": 512,
			"name": "Valico del Rospatoio",
			"type": "pass",
			"coordinates": {
				"longitude": 11.332376,
				"latitude": 43.178329
			}
		},
		{
			"address": {
				"road": "Strada Provinciale per la Vetta dell'Amiata",
				"municipality": "Abbadia San Salvatore",
				"region": "Toscana"
			},
			"id": 360,
			"elevation": 1734,
			"name": "Monte Amiata",
			"type": "peak",
			"coordinates": {
				"longitude": 11.626657,
				"latitude": 42.890923
			}
		},
		{
			"address": {
				"road": "Via del Mare",
				"municipality": "Campo nell'Elba",
				"region": "Toscana"
			},
			"id": 361,
			"elevation": 54,
			"name": "Colle della Palombaia",
			"type": "pass",
			"coordinates": {
				"longitude": 10.206823,
				"latitude": 42.737976
			}
		},
		{
			"address": {
				"road": "Strada Provinciale di Neirone",
				"municipality": "Neirone",
				"region": "Liguria"
			},
			"id": 362,
			"elevation": 926,
			"name": "Sella della Giassina",
			"type": "pass",
			"coordinates": {
				"longitude": 9.191351,
				"latitude": 44.489464
			}
		},
		{
			"address": {
				"road": "Viale Villini di Creto",
				"municipality": "Genova",
				"region": "Liguria"
			},
			"id": 363,
			"elevation": 605,
			"name": "Colle di Creto",
			"type": "pass",
			"coordinates": {
				"longitude": 9.007716,
				"latitude": 44.472042
			}
		},
		{
			"address": {
				"road": "Valico del Peschino, SP72",
				"municipality": "Rezzoaglio",
				"region": "Liguria"
			},
			"id": 364,
			"elevation": 1195,
			"name": "Valico del Pescino",
			"type": "pass",
			"coordinates": {
				"longitude": 9.406339,
				"latitude": 44.584877
			}
		},
		{
			"address": {
				"road": "Passo dei Due Santi",
				"municipality": "Zeri",
				"region": "Toscana"
			},
			"id": 365,
			"elevation": 1392,
			"name": "Passo dei Due Santi",
			"type": "pass",
			"coordinates": {
				"longitude": 9.752871,
				"latitude": 44.388615
			}
		},
		{
			"address": {
				"road": "Strada Provinciale di Adelano",
				"municipality": "Sesta Godano",
				"region": "Liguria"
			},
			"id": 366,
			"elevation": 806,
			"name": "Madonna della Penna",
			"type": "pass",
			"coordinates": {
				"longitude": 9.712231,
				"latitude": 44.34766
			}
		},
		{
			"address": {
				"road": "Via Succiso - Scalucchia",
				"municipality": "Ventasso",
				"region": "Emilia-Romagna"
			},
			"id": 367,
			"elevation": 1367,
			"name": "Passo della Scalucchia",
			"type": "pass",
			"coordinates": {
				"longitude": 10.227561,
				"latitude": 44.358372
			}
		},
		{
			"address": {
				"road": "Galleria Monte Pelato",
				"municipality": "Seravezza",
				"region": "Toscana"
			},
			"id": 368,
			"elevation": 1151,
			"name": "Passo del Vestito",
			"type": "pass",
			"coordinates": {
				"longitude": 10.229147,
				"latitude": 44.064854
			}
		},
		{
			"address": {
				"road": "Galleria del Cipollaio",
				"municipality": "Seravezza",
				"region": "Toscana"
			},
			"id": 369,
			"elevation": 819,
			"name": "Passo del Cipollaio",
			"type": "pass",
			"coordinates": {
				"longitude": 10.258806,
				"latitude": 44.039654
			}
		},
		{
			"address": {
				"road": "SP137",
				"municipality": "Verghereto",
				"region": "Emilia-Romagna"
			},
			"id": 370,
			"elevation": 865,
			"name": "Valico di Montecoronaro",
			"type": "pass",
			"coordinates": {
				"longitude": 12.026022,
				"latitude": 43.783154
			}
		},
		{
			"address": {
				"road": "Strada Statale 76 della Val d'Esino",
				"municipality": "Fossato di Vico",
				"region": "Umbria"
			},
			"id": 371,
			"elevation": 730,
			"name": "Passo di Fossato di Vico",
			"type": "pass",
			"coordinates": {
				"longitude": 12.770405,
				"latitude": 43.302601
			}
		},
		{
			"address": {
				"road": "Strada statale Centrale Sicula",
				"municipality": "Mistretta",
				"region": "Sicilia"
			},
			"id": 372,
			"elevation": 1127,
			"name": "Colle del Contrasto",
			"type": "pass",
			"coordinates": {
				"longitude": 14.397752,
				"latitude": 37.851254
			}
		},
		{
			"address": {
				"road": "Strada statale di Sella Mandrazzi",
				"municipality": "Francavilla di Sicilia",
				"region": "Sicilia"
			},
			"id": 373,
			"elevation": 1125,
			"name": "Sella Mandrazzi",
			"type": "pass",
			"coordinates": {
				"longitude": 15.138,
				"latitude": 37.975498
			}
		},
		{
			"address": {
				"road": "SP62",
				"municipality": "Barceda",
				"region": "Emilia-Romagna"
			},
			"id": 374,
			"elevation": 881,
			"name": "Serra dello Zanchetto",
			"type": "pass",
			"coordinates": {
				"longitude": 11.101738,
				"latitude": 44.143917
			}
		},
		{
			"address": {
				"road": "SP61",
				"municipality": "San Benedetto Val di Sambro",
				"region": "Emilia-Romagna"
			},
			"id": 375,
			"elevation": 700,
			"name": "Passo Monte Fredente",
			"type": "pass",
			"coordinates": {
				"longitude": 11.220315,
				"latitude": 44.189411
			}
		},
		{
			"address": {
				"road": "Via Monte Colombo",
				"municipality": "Predappio",
				"region": "Emilia-Romagna"
			},
			"id": 376,
			"elevation": 620,
			"name": "Passo Monte Mirabello",
			"type": "pass",
			"coordinates": {
				"longitude": 11.938372,
				"latitude": 44.096458
			}
		},
		{
			"address": {
				"road": "Strada Provinciale Chianti-Valdarno",
				"municipality": "Greve in Chianti",
				"region": "Toscana"
			},
			"id": 377,
			"elevation": 530,
			"name": "Passo del Sugame",
			"type": "pass",
			"coordinates": {
				"longitude": 11.366667,
				"latitude": 43.599998
			}
		},
		{
			"address": {
				"road": "SP3 del Rabbi",
				"municipality": "Premilcuore",
				"region": "Toscana"
			},
			"id": 378,
			"elevation": 989,
			"name": "Valico dei Tre Faggi",
			"type": "pass",
			"coordinates": {
				"longitude": 11.719426,
				"latitude": 43.946209
			}
		},
		{
			"address": {
				"road": "Via Imposte",
				"municipality": "Rocca Santa Maria",
				"region": "Abruzzo"
			},
			"id": 379,
			"elevation": 1600,
			"name": "Valico di Capo la Serra",
			"type": "pass",
			"coordinates": {
				"longitude": 13.532957,
				"latitude": 42.698695
			}
		},
		{
			"address": {
				"road": "Strada Regionale 602 di Forca di Penne",
				"municipality": "Ofena",
				"region": "Abruzzo"
			},
			"id": 380,
			"elevation": 918,
			"name": "Forca di Penne",
			"type": "pass",
			"coordinates": {
				"longitude": 13.836889,
				"latitude": 42.284241
			}
		},
		{
			"address": {
				"road": "Strada Statale 17 dell'Appennino Abruzzese e Appulo Sannitico",
				"municipality": "Rivisondoli",
				"region": "Abruzzo"
			},
			"id": 381,
			"elevation": 1250,
			"name": "Altopiano delle 5 Miglia",
			"type": "pass",
			"coordinates": {
				"longitude": 14.03622,
				"latitude": 41.86536
			}
		},
		{
			"address": {
				"road": "SS125",
				"municipality": "Urzulei",
				"region": "Sardegna"
			},
			"id": 382,
			"elevation": 901,
			"name": "Genna Cruxi",
			"type": "pass",
			"coordinates": {
				"longitude": 9.51331,
				"latitude": 40.113827
			}
		},
		{
			"address": {
				"road": "SS125",
				"municipality": "Baunei",
				"region": "Sardegna"
			},
			"id": 383,
			"elevation": 764,
			"name": "Genna Sarbene",
			"type": "pass",
			"coordinates": {
				"longitude": 9.572508,
				"latitude": 40.097733
			}
		},
		{
			"address": {
				"road": "SS125",
				"municipality": "Baunei",
				"region": "Sardegna"
			},
			"id": 384,
			"elevation": 666,
			"name": "Genna Scalas",
			"type": "pass",
			"coordinates": {
				"longitude": 9.602226,
				"latitude": 40.081585
			}
		},
		{
			"address": {
				"road": "SS125",
				"municipality": "Baunei",
				"region": "Sardegna"
			},
			"id": 385,
			"elevation": 724,
			"name": "Genna Coggina",
			"type": "pass",
			"coordinates": {
				"longitude": 9.613308,
				"latitude": 40.062748
			}
		},
		{
			"address": {
				"road": "Cenna Ramene, SS125",
				"municipality": "Baunei",
				"region": "Sardegna"
			},
			"id": 386,
			"elevation": 590,
			"name": "Genna Arramene",
			"type": "pass",
			"coordinates": {
				"longitude": 9.625643,
				"latitude": 40.05455
			}
		},
		{
			"address": {
				"road": "SP1",
				"municipality": "Torretta",
				"region": "Sicilia"
			},
			"id": 387,
			"elevation": 535,
			"name": "Portella Torretta",
			"type": "pass",
			"coordinates": {
				"longitude": 13.249919,
				"latitude": 38.129921
			}
		},
		{
			"address": {
				"road": "Viale Luigi Monaco",
				"municipality": "Caltanissetta",
				"region": "Sicilia"
			},
			"id": 388,
			"elevation": 800,
			"name": "Passo Babaurra",
			"type": "pass",
			"coordinates": {
				"longitude": 14.014421,
				"latitude": 37.485844
			}
		},
		{
			"address": {
				"road": "SP25",
				"municipality": "Castel d'Aiano",
				"region": "Emilia-Romagna"
			},
			"id": 389,
			"elevation": 802,
			"name": "Passo Sella della Croce",
			"type": "pass",
			"coordinates": {
				"longitude": 11.026225,
				"latitude": 44.29681
			}
		},
		{
			"address": {
				"road": "Via per Trivigno",
				"municipality": "Aprica",
				"region": "Lombardia"
			},
			"id": 390,
			"elevation": 1427,
			"name": "Passo di Santa Cristina",
			"type": "pass",
			"coordinates": {
				"longitude": 10.157281,
				"latitude": 46.169148
			}
		},
		{
			"address": {
				"road": "Strada Colle San Martino-Piano Ruggio",
				"municipality": "Morano Calabro",
				"region": "Basilicata"
			},
			"id": 391,
			"elevation": 1606,
			"name": "Colle Ruggio",
			"type": "pass",
			"coordinates": {
				"longitude": 16.1193627,
				"latitude": 39.9083434
			}
		},
		{
			"address": {
				"road": "Via Appia",
				"municipality": "Albano di Lucania",
				"region": "Basilicata"
			},
			"id": 392,
			"elevation": 1035,
			"name": "Valico di Cupolicchio",
			"type": "pass",
			"coordinates": {
				"longitude": 16.0323572,
				"latitude": 40.6096846
			}
		},
		{
			"address": {
				"road": "SP277",
				"municipality": "Garaguso",
				"region": "Basilicata"
			},
			"id": 393,
			"elevation": 1044,
			"name": "Valico di Montepiano",
			"type": "pass",
			"coordinates": {
				"longitude": 16.2291241,
				"latitude": 40.5490508
			}
		},
		{
			"address": {
				"road": "SS. 7 Appia",
				"municipality": "Ruoti",
				"region": "Basilicata"
			},
			"id": 394,
			"elevation": 1138,
			"name": "Valico Monte Romito",
			"type": "pass",
			"coordinates": {
				"longitude": 15.739181,
				"latitude": 40.6792711
			}
		},
		{
			"address": {
				"road": "SP ex SS19 delle Calabrie",
				"municipality": "Morano Calabro",
				"region": "Calabria"
			},
			"id": 395,
			"elevation": 1022,
			"name": "Valico Le Teste",
			"type": "pass",
			"coordinates": {
				"longitude": 16.0967302,
				"latitude": 39.8605054
			}
		},
		{
			"address": {
				"road": "SP51",
				"municipality": "Balvano",
				"region": "Basilicata"
			},
			"id": 396,
			"elevation": 920,
			"name": "Varco della Ripe",
			"type": "pass",
			"coordinates": {
				"longitude": 15.5627131,
				"latitude": 40.6400257
			}
		},
		{
			"address": {
				"road": "Strada Provinciale 38 di Belmonte Mezzagno e Santa Cristina Gela",
				"municipality": "Belmonte Mezzagno",
				"region": "Sicilia"
			},
			"id": 397,
			"elevation": 588,
			"name": "Portella di Pianetto",
			"type": "pass",
			"coordinates": {
				"longitude": 13.3625078,
				"latitude": 38.019934
			}
		},
		{
			"address": {
				"road": "Strada statale Centro Occidentale Sicula",
				"municipality": "Corleone",
				"region": "Sicilia"
			},
			"id": 398,
			"elevation": 683,
			"name": "Portella Scorciavacche",
			"type": "pass",
			"coordinates": {
				"longitude": 13.2815266,
				"latitude": 37.7773295
			}
		},
		{
			"address": {
				"road": "Strada statale Agrigentina",
				"municipality": "Favara",
				"region": "Sicilia"
			},
			"id": 399,
			"elevation": 464,
			"name": "Sella Monello",
			"type": "pass",
			"coordinates": {
				"longitude": 13.7269396,
				"latitude": 37.3417073
			}
		},
		{
			"address": {
				"road": "Strada statale Agrigentina",
				"municipality": "Serradifalco",
				"region": "Sicilia"
			},
			"id": 400,
			"elevation": 679,
			"name": "Portella del Toro",
			"type": "pass",
			"coordinates": {
				"longitude": 13.9697385,
				"latitude": 37.4705921
			}
		},
		{
			"address": {
				"road": "E 931",
				"municipality": "Siculiana",
				"region": "Sicilia"
			},
			"id": 401,
			"elevation": 140,
			"name": "Sella Omomorto",
			"type": "pass",
			"coordinates": {
				"longitude": 13.3634949,
				"latitude": 37.3683154
			}
		},
		{
			"address": {
				"road": "Strada Provinciale 46",
				"municipality": "Naro",
				"region": "Sicilia"
			},
			"id": 402,
			"elevation": 324,
			"name": "Portella di Naro",
			"type": "pass",
			"coordinates": {
				"longitude": 13.8639951,
				"latitude": 37.2047994
			}
		},
		{
			"address": {
				"road": "Strada statale Sud Occidentale Sicula",
				"municipality": "Acate",
				"region": "Sicilia"
			},
			"id": 403,
			"elevation": 99,
			"name": "Passo della Pantanelle",
			"type": "pass",
			"coordinates": {
				"longitude": 14.4066811,
				"latitude": 37.0282528
			}
		},
		{
			"address": {
				"road": "Strada Provinciale 157 Tortoriciana",
				"municipality": "Galati Mamertino",
				"region": "Sicilia"
			},
			"id": 404,
			"elevation": 892,
			"name": "Portella Calcatizzo",
			"type": "pass",
			"coordinates": {
				"longitude": 14.8027039,
				"latitude": 38.0277771
			}
		},
		{
			"address": {
				"road": "SP8",
				"municipality": "Grotteria",
				"region": "Calabria"
			},
			"id": 405,
			"elevation": 1110,
			"name": "Passo Croce Ferrata",
			"type": "pass",
			"coordinates": {
				"longitude": 16.2728333,
				"latitude": 38.4428503
			}
		},
		{
			"address": {
				"road": "Mini Rotatoria, SP 1",
				"municipality": "Gerace",
				"region": "Calabria"
			},
			"id": 406,
			"elevation": 952,
			"name": "Passo del Mercante",
			"type": "pass",
			"coordinates": {
				"longitude": 16.1374676,
				"latitude": 38.3289149
			}
		},
		{
			"address": {
				"road": "SR103/B",
				"municipality": "Montesano sulla Marcellana",
				"region": "Campania"
			},
			"id": 407,
			"elevation": 1040,
			"name": "Sella Cessuta",
			"type": "pass",
			"coordinates": {
				"longitude": 15.8000457,
				"latitude": 40.2492916
			}
		},
		{
			"address": {
				"road": "SP145",
				"municipality": "Filadelfia",
				"region": "Calabria"
			},
			"id": 408,
			"elevation": 873,
			"name": "Passo Fosso del Lupo",
			"type": "pass",
			"coordinates": {
				"longitude": 16.3636637,
				"latitude": 38.7627842
			}
		},
		{
			"address": {
				"road": "SS108 BIS - Silana di Cariati",
				"municipality": "Cellara",
				"region": "Calabria"
			},
			"id": 409,
			"elevation": 1384,
			"name": "Colle d'Ascione",
			"type": "pass",
			"coordinates": {
				"longitude": 16.4427245,
				"latitude": 39.203435
			}
		},
		{
			"address": {
				"road": "SP4",
				"municipality": "Monreale",
				"region": "Sicilia"
			},
			"id": 410,
			"elevation": 355,
			"name": "Portella di Poira",
			"type": "pass",
			"coordinates": {
				"longitude": 13.2513463,
				"latitude": 37.8610225
			}
		},
		{
			"address": {
				"road": "SP5",
				"municipality": "Piana degli Albanesi",
				"region": "Sicilia"
			},
			"id": 411,
			"elevation": 856,
			"name": "Portella Sant'Agata",
			"type": "pass",
			"coordinates": {
				"longitude": 13.3161592,
				"latitude": 37.9561433
			}
		},
		{
			"address": {
				"road": "Strada Provinciale 31 della Margana",
				"municipality": "Prizzi",
				"region": "Sicilia"
			},
			"id": 412,
			"elevation": 491,
			"name": "Portella di Croce",
			"type": "pass",
			"coordinates": {
				"longitude": 13.4956795,
				"latitude": 37.7714526
			}
		},
		{
			"address": {
				"road": "Strada provinciale Chiaramonte-Maltempo",
				"municipality": "Chiaramonte Gulfi",
				"region": "Sicilia"
			},
			"id": 413,
			"elevation": 883,
			"name": "Serra di Burgio",
			"type": "pass",
			"coordinates": {
				"longitude": 14.7155213,
				"latitude": 37.0173741
			}
		},
		{
			"address": {
				"road": "SP77",
				"municipality": "Serrastretta",
				"region": "Calabria"
			},
			"id": 414,
			"elevation": 1050,
			"name": "Passo Condrò",
			"type": "pass",
			"coordinates": {
				"longitude": 16.3908398,
				"latitude": 39.0044865
			}
		},
		{
			"address": {
				"road": "SP159/1",
				"municipality": "Platania",
				"region": "Calabria"
			},
			"id": 415,
			"elevation": 1020,
			"name": "Passo di Acquabona",
			"type": "pass",
			"coordinates": {
				"longitude": 16.3353074,
				"latitude": 39.0272729
			}
		},
		{
			"address": {
				"road": "SP256",
				"municipality": "San Pietro in Guarano",
				"region": "Calabria"
			},
			"id": 416,
			"elevation": 1435,
			"name": "Valico Serra del Fiego",
			"type": "pass",
			"coordinates": {
				"longitude": 16.4032102,
				"latitude": 39.348567
			}
		},
		{
			"address": {
				"road": "Strada Provinciale 115 Tripiciana",
				"municipality": "Montalbano Elicona",
				"region": "Sicilia"
			},
			"id": 417,
			"elevation": 1104,
			"name": "Portella Zilla",
			"type": "pass",
			"coordinates": {
				"longitude": 15.000726,
				"latitude": 37.9846843
			}
		},
		{
			"address": {
				"road": "Strada statale Agrigentina",
				"municipality": "Caltanissetta",
				"region": "Sicilia"
			},
			"id": 418,
			"elevation": 611,
			"name": "Portella del Vento",
			"type": "pass",
			"coordinates": {
				"longitude": 14.0815169,
				"latitude": 37.569519
			}
		},
		{
			"address": {
				"road": "Strada Provinciale 8 di Valledolmo",
				"municipality": "Valledolmo",
				"region": "Sicilia"
			},
			"id": 419,
			"elevation": 871,
			"name": "Portella Mangiante",
			"type": "pass",
			"coordinates": {
				"longitude": 13.8886929,
				"latitude": 37.7666947
			}
		},
		{
			"address": {
				"road": "SP34",
				"municipality": "Piana degli Albanesi",
				"region": "Sicilia"
			},
			"id": 420,
			"elevation": 855,
			"name": "Portella Ginestra",
			"type": "pass",
			"coordinates": {
				"longitude": 13.2676113,
				"latitude": 37.9795977
			}
		},
		{
			"address": {
				"road": "Crocefisso in Metallo",
				"municipality": "Genova",
				"region": "Liguria"
			},
			"id": 421,
			"elevation": 834,
			"name": "Monte Fasce",
			"type": "pass",
			"coordinates": {
				"longitude": 9.0344632,
				"latitude": 44.4100335
			}
		},
		{
			"address": {
				"road": "SP465",
				"municipality": "Santo Stefano di Cadore",
				"region": "Veneto"
			},
			"id": 422,
			"elevation": 1542,
			"name": "Forcella Lavardet",
			"type": "pass",
			"coordinates": {
				"longitude": 12.601254,
				"latitude": 46.533169
			}
		},
		{
			"address": {
				"road": "Via Civita Farnese",
				"municipality": "Campodimele",
				"region": "Lazio"
			},
			"id": 423,
			"elevation": 620,
			"name": "Passo San Nicola",
			"type": "pass",
			"coordinates": {
				"longitude": 13.524521,
				"latitude": 41.350705
			}
		},
		{
			"address": {
				"road": "SS83",
				"municipality": "Barrea",
				"region": "Abruzzo"
			},
			"id": 424,
			"elevation": 1164,
			"name": "Colle della Croce",
			"type": "pass",
			"coordinates": {
				"longitude": 13.99323,
				"latitude": 41.741284
			}
		},
		{
			"address": {
				"road": "SR637",
				"municipality": "Vallecorsa",
				"region": "Lazio"
			},
			"id": 425,
			"elevation": 548,
			"name": "Passo di Quercia del Monaco",
			"type": "pass",
			"coordinates": {
				"longitude": 13.426514,
				"latitude": 41.397356
			}
		},
		{
			"address": {
				"road": "Via Piternis",
				"municipality": "Cervaro",
				"region": "Lazio"
			},
			"id": 426,
			"elevation": 1053,
			"name": "Forcella di Cervaro",
			"type": "pass",
			"coordinates": {
				"longitude": 13.966624,
				"latitude": 41.509352
			}
		},
		{
			"address": {
				"road": "SP60",
				"municipality": "Cocullo",
				"region": "Abruzzo"
			},
			"id": 427,
			"elevation": 1235,
			"name": "Valico Olmo di Bobbi",
			"type": "pass",
			"coordinates": {
				"longitude": 13.744176,
				"latitude": 42.047648
			}
		},
		{
			"address": {
				"road": "SS158",
				"municipality": "Alfedena",
				"region": "Abruzzo"
			},
			"id": 428,
			"elevation": 1112,
			"name": "Il Calvario",
			"type": "pass",
			"coordinates": {
				"longitude": 14.033230,
				"latitude": 41.717990
			}
		},
		{
			"address": {
				"road": "SP41",
				"municipality": "Acquafondata",
				"region": "Lazio"
			},
			"id": 429,
			"elevation": 967,
			"name": "Passo delle Serre",
			"type": "pass",
			"coordinates": {
				"longitude": 13.942518,
				"latitude": 41.544126
			}
		},
		{
			"address": {
				"road": "Itinerario Indro Montanelli",
				"municipality": "Pretoro",
				"region": "Abruzzo"
			},
			"id": 430,
			"elevation": 2142,
			"name": "Blockhaus",
			"type": "peak",
			"coordinates": {
				"longitude": 14.115324,
				"latitude": 42.150311
			}
		},
		{
			"address": {
				"road": "Località Campo Imperatore, SS17bis/C",
				"municipality": "Assergi",
				"region": "Abruzzo"
			},
			"id": 431,
			"elevation": 2130,
			"name": "Campo Imperatore",
			"type": "peak",
			"coordinates": {
				"longitude": 13.558613,
				"latitude": 42.442604
			}
		},
		{
			"address": {
				"road": "SR411",
				"municipality": "Altipiani di Arcinazzo",
				"region": "Lazio"
			},
			"id": 432,
			"elevation": 1011,
			"name": "Colle Cimetta",
			"type": "pass",
			"coordinates": {
				"longitude": 13.236532,
				"latitude": 41.836151
			}
		},
		{
			"address": {
				"road": "SR609",
				"municipality": "Carpineto Romano",
				"region": "Lazio"
			},
			"id": 433,
			"elevation": 695,
			"name": "Cona di Selvapiana",
			"type": "pass",
			"coordinates": {
				"longitude": 13.123525,
				"latitude": 41.581433
			}
		},
		{
			"address": {
				"road": "SP331",
				"municipality": "San Gregorio Matese",
				"region": "Campania"
			},
			"id": 434,
			"elevation": 1102,
			"name": "Passo di Miralago",
			"type": "pass",
			"coordinates": {
				"longitude": 14.420947,
				"latitude": 41.400445
			}
		},
		{
			"address": {
				"road": "SP331",
				"municipality": "Guardiaregia",
				"region": "Molise"
			},
			"id": 435,
			"elevation": 1257,
			"name": "Sella del Perrone",
			"type": "pass",
			"coordinates": {
				"longitude": 14.482952,
				"latitude": 41.403104
			}
		},
		{
			"address": {
				"road": "SP89",
				"municipality": "Cusano Mutri",
				"region": "Campania"
			},
			"id": 436,
			"elevation": 1393,
			"name": "Bocca della Selva",
			"type": "pass",
			"coordinates": {
				"longitude": 14.498040,
				"latitude": 41.379182
			}
		},
		{
			"address": {
				"road": "SP94",
				"municipality": "Sepino",
				"region": "Molise"
			},
			"id": 437,
			"elevation": 1219,
			"name": "Passo Santa Crocella",
			"type": "pass",
			"coordinates": {
				"longitude": 14.580977,
				"latitude": 41.384267
			}
		}
	]
}