{
    "version": 0,
    "passes": [
        {
            "address": {
                "region": "Veneto",
                "province": "BL",
                "municipality": "Livinallongo del Col di Lana",
                "road": "SP244"
            },
            "id": 1,
            "elevation": 1875,
            "name": "Passo Campolongo",
            "type": "pass",
            "coordinates": {
                "longitude": 11.872573,
                "latitude": 46.513603
            }
        },
        {
            "address": {
                "region": "Veneto",
                "province": "BL",
                "municipality": "Cibiana di Cadore",
                "road": "S. Maria Assunta, SP347"
            },
            "id": 2,
            "elevation": 1530,
            "name": "Passo Cibiana",
            "type": "pass",
            "coordinates": {
                "longitude": 12.25853,
                "latitude": 46.374362
            }
        },
        {
            "address": {
                "region": "Trentino-Alto Adige",
                "province": "BZ",
                "municipality": "Marebbe",
                "road": "LS/SP43"
            },
            "id": 3,
            "elevation": 1789,
            "name": "Passo Furcia",
            "type": "pass",
            "coordinates": {
                "longitude": 11.969508,
                "latitude": 46.723057
            }
        },
        {
            "address": {
                "region": "Veneto",
                "province": "BL",
                "municipality": "Val di Zoldo",
                "road": "Via Santa Fosca"
            },
            "id": 4,
            "elevation": 1773,
            "name": "Passo Staulanza",
            "type": "pass",
            "coordinates": {
                "longitude": 12.104841,
                "latitude": 46.420776
            }
        },
        {
            "address": {
                "region": "Friuli-Venezia Giulia",
                "province": "PN",
                "municipality": "Cimolais",
                "road": "SR251"
            },
            "id": 5,
            "elevation": 827,
            "name": "Passo di Sant'Osvaldo",
            "type": "pass",
            "coordinates": {
                "longitude": 12.408843,
                "latitude": 46.285423
            }
        },
        {
            "address": {
                "region": "Veneto",
                "province": "BL",
                "municipality": "Auronzo di Cadore",
                "road": "Rifugio Auronzo, Forcella Longeres, Auronzo di Cadore (BL)"
            },
            "id": 6,
            "elevation": 2333,
            "name": "Tre Cime di Lavaredo",
            "type": "peak",
            "coordinates": {
                "longitude": 12.295813,
                "latitude": 46.612209
            }
        },
        {
            "address": {
                "region": "Veneto",
                "province": "BL",
                "municipality": "Comelico Superiore",
                "road": "Via Milano"
            },
            "id": 7,
            "elevation": 1489,
            "name": "Passo Sant'Antonio",
            "type": "pass",
            "coordinates": {
                "longitude": 12.482346,
                "latitude": 46.572006
            }
        },
        {
            "address": {
                "region": "Trentino-Alto Adige",
                "province": "TN",
                "municipality": "Terragnolo",
                "road": "SP138"
            },
            "id": 8,
            "elevation": 1206,
            "name": "Passo della Borcola",
            "type": "pass",
            "coordinates": {
                "longitude": 11.20672,
                "latitude": 45.827625
            }
        },
        {
            "address": {
                "region": "Lombardia",
                "province": "LC",
                "municipality": "Galbiate",
                "road": "Via Balassi"
            },
            "id": 9,
            "elevation": 922,
            "name": "Monte Barro",
            "type": "peak",
            "coordinates": {
                "longitude": 9.371338,
                "latitude": 45.831551
            }
        },
        {
            "address": {
                "region": "Veneto",
                "province": "BL",
                "municipality": "Lorenzago di Cadore",
                "road": "Strada Statale 52 Carnica"
            },
            "id": 10,
            "elevation": 1298,
            "name": "Passo di Mauria",
            "type": "pass",
            "coordinates": {
                "longitude": 12.5125,
                "latitude": 46.457779
            }
        },
        {
            "address": {
                "region": "Veneto",
                "province": "TV",
                "municipality": "Cison di Valmarino",
                "road": "Passo San Boldo, Via San Boldo"
            },
            "id": 11,
            "elevation": 706,
            "name": "Passo San Boldo",
            "type": "pass",
            "coordinates": {
                "longitude": 12.169427,
                "latitude": 46.006831
            }
        },
        {
            "address": {
                "region": "Trentino-Alto Adige",
                "province": "TN",
                "municipality": "Folgaria",
                "road": "Passo Sommo, Strada Statale 350 di Folgaria e Val d'Astico"
            },
            "id": 12,
            "elevation": 1341,
            "name": "Passo Sommo",
            "type": "pass",
            "coordinates": {
                "longitude": 11.2062,
                "latitude": 45.919575
            }
        },
        {
            "address": {
                "region": "Trentino-Alto Adige",
                "province": "TN",
                "municipality": "Levico Terme",
                "road": "Strada Statale di Val D'Assa e Pedemontana Costo"
            },
            "id": 13,
            "elevation": 1402,
            "name": "Passo Vezzena",
            "type": "pass",
            "coordinates": {
                "longitude": 11.328481,
                "latitude": 45.956669
            }
        },
        {
            "address": {
                "region": "Trentino-Alto Adige",
                "province": "TN",
                "municipality": "Altopiano della Vigolana",
                "road": "Valico della Fricca, SS349"
            },
            "id": 14,
            "elevation": 1083,
            "name": "Valico della Fricca",
            "type": "pass",
            "coordinates": {
                "longitude": 11.207197,
                "latitude": 45.949764
            }
        },
        {
            "address": {
                "region": "Veneto",
                "province": "VI",
                "municipality": "Valli del Pasubio",
                "road": "Strada dello Xomo"
            },
            "id": 15,
            "elevation": 1058,
            "name": "Passo Xomo",
            "type": "pass",
            "coordinates": {
                "longitude": 11.237678,
                "latitude": 45.777012
            }
        },
        {
            "address": {
                "region": "Veneto",
                "province": "BL",
                "municipality": "Voltago Agordino",
                "road": "SP347"
            },
            "id": 16,
            "elevation": 1299,
            "name": "Forcella Aurine",
            "type": "pass",
            "coordinates": {
                "longitude": 11.974394,
                "latitude": 46.236855
            }
        },
        {
            "address": {
                "region": "Veneto",
                "province": "BL",
                "municipality": "Sovramonte",
                "road": "SP473"
            },
            "id": 17,
            "elevation": 1011,
            "name": "Croce d'Aune",
            "type": "pass",
            "coordinates": {
                "longitude": 11.829508,
                "latitude": 46.062172
            }
        },
        {
            "address": {
                "region": "Lombardia",
                "province": "CO",
                "municipality": "Gravedona ed Uniti",
                "road": "Passo San Jorio"
            },
            "id": 18,
            "elevation": 2010,
            "name": "Passo San Jorio",
            "type": "pass",
            "coordinates": {
                "longitude": 9.15921,
                "latitude": 46.166599
            }
        },
        {
            "address": {
                "region": "Trentino-Alto Adige",
                "province": "BZ",
                "municipality": "Trodena nel Parco Naturale",
                "road": "Fleimstaler Straße - Via Val di Fiemme"
            },
            "id": 19,
            "elevation": 1097,
            "name": "Passo San Lugano",
            "type": "pass",
            "coordinates": {
                "longitude": 11.395226,
                "latitude": 46.310772
            }
        },
        {
            "address": {
                "region": "Veneto",
                "province": "BL",
                "municipality": "Cortina d'Ampezzo",
                "road": "Passo Posporcora"
            },
            "id": 20,
            "elevation": 1720,
            "name": "Passo Pospòrcora",
            "type": "pass",
            "coordinates": {
                "longitude": 12.095513,
                "latitude": 46.582432
            }
        },
        {
            "address": {
                "region": "Lombardia",
                "province": "BS",
                "municipality": "Lumezzane",
                "road": "Via Valsabbia"
            },
            "id": 21,
            "elevation": 742,
            "name": "Passo del Cavallo",
            "type": "pass",
            "coordinates": {
                "longitude": 10.318016,
                "latitude": 45.648209
            }
        },
        {
            "address": {
                "region": "Veneto",
                "province": "BL",
                "municipality": "Gosaldo",
                "road": "Strada Provinciale della Val Imperina"
            },
            "id": 22,
            "elevation": 990,
            "name": "Forcella Franche",
            "type": "pass",
            "coordinates": {
                "longitude": 12.012106,
                "latitude": 46.232258
            }
        },
        {
            "address": {
                "region": "Trentino-Alto Adige",
                "province": "TN",
                "municipality": "Bedollo",
                "road": "Strada del Redebus"
            },
            "id": 23,
            "elevation": 1455,
            "name": "Passo del Redebus",
            "type": "pass",
            "coordinates": {
                "longitude": 11.323638,
                "latitude": 46.135585
            }
        },
        {
            "address": {
                "region": "Friuli-Venezia Giulia",
                "province": "PN",
                "municipality": "Frisanco",
                "road": "Forcella di Pala Barzana, SP63"
            },
            "id": 24,
            "elevation": 842,
            "name": "Forcella di Pala Barzana",
            "type": "pass",
            "coordinates": {
                "longitude": 12.65906,
                "latitude": 46.196022
            }
        },
        {
            "address": {
                "region": "Friuli-Venezia Giulia",
                "province": "UD",
                "municipality": "Ampezzo",
                "road": "Strada esterna Corso"
            },
            "id": 25,
            "elevation": 886,
            "name": "Sella Di Cima Corso",
            "type": "pass",
            "coordinates": {
                "longitude": 12.741609,
                "latitude": 46.396187
            }
        },
        {
            "address": {
                "region": "Friuli-Venezia Giulia",
                "province": "UD",
                "municipality": "Resia",
                "road": "Via Tamor"
            },
            "id": 26,
            "elevation": 1086,
            "name": "Sella Carnizza",
            "type": "pass",
            "coordinates": {
                "longitude": 13.319898,
                "latitude": 46.336493
            }
        },
        {
            "address": {
                "region": "Trentino-Alto Adige",
                "province": "TN",
                "municipality": "Castello Tesino",
                "road": "SP79"
            },
            "id": 27,
            "elevation": 1616,
            "name": "Passo Brocon",
            "type": "pass",
            "coordinates": {
                "longitude": 11.688416,
                "latitude": 46.118584
            }
        },
        {
            "address": {
                "region": "Friuli-Venezia Giulia",
                "province": "UD",
                "municipality": "Socchieve",
                "road": "SR552"
            },
            "id": 28,
            "elevation": 1052,
            "name": "Passo Rest",
            "type": "pass",
            "coordinates": {
                "longitude": 12.784567,
                "latitude": 46.354927
            }
        },
        {
            "address": {
                "region": "Friuli-Venezia Giulia",
                "province": "UD",
                "municipality": "Comeglians",
                "road": "Panoramica delle Vette"
            },
            "id": 29,
            "elevation": 1982,
            "name": "Monte Crostis",
            "type": "peak",
            "coordinates": {
                "longitude": 12.89295,
                "latitude": 46.565086
            }
        },
        {
            "address": {
                "region": "Friuli-Venezia Giulia",
                "province": "UD",
                "municipality": "Treppo Ligosullo",
                "road": "Forcella di Lius, Strada Provinciale Duron"
            },
            "id": 30,
            "elevation": 1030,
            "name": "Forcella Duron",
            "type": "pass",
            "coordinates": {
                "longitude": 13.08476,
                "latitude": 46.538494
            }
        },
        {
            "address": {
                "region": "Friuli-Venezia Giulia",
                "province": "UD",
                "municipality": "Dogna",
                "road": "Sella Cereschiatis, SP112"
            },
            "id": 31,
            "elevation": 1066,
            "name": "Sella Cereschiatis",
            "type": "pass",
            "coordinates": {
                "longitude": 13.24507,
                "latitude": 46.504025
            }
        },
        {
            "address": {
                "region": "Friuli-Venezia Giulia",
                "province": "UD",
                "municipality": "Sutrio",
                "road": "Sella del Monte Zoncolan"
            },
            "id": 32,
            "elevation": 1750,
            "name": "Sella Monte Zoncolan",
            "type": "pass",
            "coordinates": {
                "longitude": 12.926874,
                "latitude": 46.501907
            }
        },
        {
            "address": {
                "region": "Veneto",
                "province": "BL",
                "municipality": "Vigo di Cadore",
                "road": "Casera Razzo, SP619"
            },
            "id": 33,
            "elevation": 1760,
            "name": "Sella di Razzo",
            "type": "pass",
            "coordinates": {
                "longitude": 12.60856,
                "latitude": 46.478462
            }
        },
        {
            "address": {
                "region": "Veneto",
                "province": "BL",
                "municipality": "Vigo di Cadore",
                "road": "SP619"
            },
            "id": 34,
            "elevation": 1790,
            "name": "Sella Ciampigotto",
            "type": "pass",
            "coordinates": {
                "longitude": 12.582242,
                "latitude": 46.487507
            }
        },
        {
            "address": {
                "region": "Friuli-Venezia Giulia",
                "province": "UD",
                "municipality": "Ampezzo",
                "road": "Passo del Pura, Strada del Monte Pura"
            },
            "id": 35,
            "elevation": 1428,
            "name": "Passo Del Pura",
            "type": "pass",
            "coordinates": {
                "longitude": 12.743819,
                "latitude": 46.422874
            }
        },
        {
            "address": {
                "region": "Friuli-Venezia Giulia",
                "province": "UD",
                "municipality": "Preone",
                "road": "Strada Comunale Preone - Pozzis"
            },
            "id": 36,
            "elevation": 780,
            "name": "Sella Chiampon",
            "type": "pass",
            "coordinates": {
                "longitude": 12.879367,
                "latitude": 46.359028
            }
        },
        {
            "address": {
                "region": "Friuli-Venezia Giulia",
                "province": "UD",
                "municipality": "Verzegnis",
                "road": "Sella Chianzutan, Via Sella Chianzutan"
            },
            "id": 37,
            "elevation": 950,
            "name": "Sella Chianzutan",
            "type": "pass",
            "coordinates": {
                "longitude": 12.941294,
                "latitude": 46.359429
            }
        },
        {
            "address": {
                "region": "Trentino-Alto Adige",
                "province": "TN",
                "municipality": "Canal San Bovo",
                "road": "Strada Provinciale 79 del Brocon"
            },
            "id": 38,
            "elevation": 988,
            "name": "Passo della Gobbera",
            "type": "pass",
            "coordinates": {
                "longitude": 11.758118,
                "latitude": 46.148441
            }
        },
        {
            "address": {
                "region": "Trentino-Alto Adige",
                "province": "TN",
                "municipality": "Pieve Tesino",
                "road": "SP78"
            },
            "id": 39,
            "elevation": 910,
            "name": "Passo Forcella",
            "type": "pass",
            "coordinates": {
                "longitude": 11.579933,
                "latitude": 46.078709
            }
        },
        {
            "address": {
                "region": "Liguria",
                "province": "SV",
                "municipality": "Massimino",
                "road": "Colle dei Giovetti, Strada provinciale del Colle del Melogno"
            },
            "id": 40,
            "elevation": 912,
            "name": "Colle dei Giovetti",
            "type": "pass",
            "coordinates": {
                "longitude": 8.096221,
                "latitude": 44.279339
            }
        },
        {
            "address": {
                "region": "Piemonte",
                "province": "CN",
                "municipality": "Garessio",
                "road": "SP213"
            },
            "id": 41,
            "elevation": 1112,
            "name": "Colle Quazzo",
            "type": "pass",
            "coordinates": {
                "longitude": 8.067827,
                "latitude": 44.201683
            }
        },
        {
            "address": {
                "region": "Liguria",
                "province": "SV",
                "municipality": "Castelvecchio di Rocca Barbena",
                "road": "SP52"
            },
            "id": 42,
            "elevation": 814,
            "name": "Colle Scravaion",
            "type": "pass",
            "coordinates": {
                "longitude": 8.120506,
                "latitude": 44.159519
            }
        },
        {
            "address": {
                "region": "Liguria",
                "province": "IM",
                "municipality": "Montalto Carpasio",
                "road": "Monte Carpasina, SP21"
            },
            "id": 43,
            "elevation": 1167,
            "name": "Colle d'Oggia",
            "type": "pass",
            "coordinates": {
                "longitude": 7.867879,
                "latitude": 43.981716
            }
        },
        {
            "address": {
                "region": "Liguria",
                "province": "IM",
                "municipality": "Isolabona",
                "road": "Testa d'Alpe - Alto, SP69"
            },
            "id": 44,
            "elevation": 1219,
            "name": "Passo Gouta",
            "type": "pass",
            "coordinates": {
                "longitude": 7.608461,
                "latitude": 43.939503
            }
        },
        {
            "address": {
                "region": "Piemonte",
                "province": "CN",
                "municipality": "Valdieri",
                "road": "Madonna del Colletto, Via Madonna del Colletto"
            },
            "id": 45,
            "elevation": 1303,
            "name": "Madonna del Colletto",
            "type": "pass",
            "coordinates": {
                "longitude": 7.37277,
                "latitude": 44.283493
            }
        },
        {
            "address": {
                "region": "Piemonte",
                "province": "CN",
                "municipality": "Chiusa di Pesio",
                "road": "SP5"
            },
            "id": 46,
            "elevation": 708,
            "name": "Colle del Mortè",
            "type": "pass",
            "coordinates": {
                "longitude": 7.701952,
                "latitude": 44.312332
            }
        },
        {
            "address": {
                "region": "Piemonte",
                "province": "CN",
                "municipality": "Marmora",
                "road": "Colle d'Esischie"
            },
            "id": 47,
            "elevation": 2366,
            "name": "Colle d'Esischie",
            "type": "pass",
            "coordinates": {
                "longitude": 7.123475,
                "latitude": 44.396797
            }
        },
        {
            "address": {
                "region": "Piemonte",
                "province": "CN",
                "municipality": "Castelmagno",
                "road": "Colle del Vallonetto"
            },
            "id": 48,
            "elevation": 2447,
            "name": "Colle del Vallonetto",
            "type": "pass",
            "coordinates": {
                "longitude": 7.120171,
                "latitude": 44.389511
            }
        },
        {
            "address": {
                "region": "Piemonte",
                "province": "CN",
                "municipality": "Sambuco",
                "road": "Colle Valcavera, Maira-Stura-Kammstraße"
            },
            "id": 49,
            "elevation": 2416,
            "name": "Colle Valcavera",
            "type": "pass",
            "coordinates": {
                "longitude": 7.101266,
                "latitude": 44.381638
            }
        },
        {
            "address": {
                "region": "Piemonte",
                "province": "TO",
                "municipality": "Valgioie",
                "road": "SP188"
            },
            "id": 50,
            "elevation": 1007,
            "name": "Colle Braida",
            "type": "pass",
            "coordinates": {
                "longitude": 7.333841,
                "latitude": 45.083076
            }
        },
        {
            "address": {
                "region": "Valle d'Aosta",
                "province": "AO",
                "municipality": "Saint-Vincent",
                "road": "Strada Colle di Joux"
            },
            "id": 51,
            "elevation": 1640,
            "name": "Col de Joux",
            "type": "pass",
            "coordinates": {
                "longitude": 7.702661,
                "latitude": 45.753788
            }
        },
        {
            "address": {
                "region": "Piemonte",
                "province": "BI",
                "municipality": "Tavigliano",
                "road": "SP115"
            },
            "id": 52,
            "elevation": 1382,
            "name": "Bocchetto Sessera",
            "type": "pass",
            "coordinates": {
                "longitude": 8.060081,
                "latitude": 45.663399
            }
        },
        {
            "address": {
                "region": "Piemonte",
                "province": "BI",
                "municipality": "Trivero",
                "road": "Panoramica Zegna"
            },
            "id": 53,
            "elevation": 1206,
            "name": "Bocchetta di Stavello",
            "type": "pass",
            "coordinates": {
                "longitude": 8.14265,
                "latitude": 45.681931
            }
        },
        {
            "address": {
                "region": "Lombardia",
                "province": "VA",
                "municipality": "Castelveccana",
                "road": "SP7"
            },
            "id": 54,
            "elevation": 1036,
            "name": "Passo Sant'Antonio Vararo",
            "type": "pass",
            "coordinates": {
                "longitude": 8.691999,
                "latitude": 45.931885
            }
        },
        {
            "address": {
                "region": "Lombardia",
                "province": "BG",
                "municipality": "Bianzano",
                "road": "Via Valle Rossa"
            },
            "id": 55,
            "elevation": 653,
            "name": "Forcella di Val Rossa",
            "type": "pass",
            "coordinates": {
                "longitude": 9.908853,
                "latitude": 45.771069
            }
        },
        {
            "address": {
                "region": "Lombardia",
                "province": "BS",
                "municipality": "Borno",
                "road": "Via Giallo"
            },
            "id": 56,
            "elevation": 1153,
            "name": "Valico della Croce di Salven",
            "type": "pass",
            "coordinates": {
                "longitude": 10.151196,
                "latitude": 45.94738
            }
        },
        {
            "address": {
                "region": "Lombardia",
                "province": "BS",
                "municipality": "Pezzaze",
                "road": "Colle di San Zeno"
            },
            "id": 57,
            "elevation": 1420,
            "name": "Colle di San Zeno",
            "type": "pass",
            "coordinates": {
                "longitude": 10.187116,
                "latitude": 45.780724
            }
        },
        {
            "address": {
                "region": "Lombardia",
                "province": "BS",
                "municipality": "Pertica Alta",
                "road": "SP50"
            },
            "id": 58,
            "elevation": 954,
            "name": "Passo del Termine",
            "type": "pass",
            "coordinates": {
                "longitude": 10.309875,
                "latitude": 45.746098
            }
        },
        {
            "address": {
                "region": "Lombardia",
                "province": "BS",
                "municipality": "Lodrino",
                "road": "Via John Fitzgerald Kennedy"
            },
            "id": 59,
            "elevation": 735,
            "name": "Cocca di Lodrino",
            "type": "pass",
            "coordinates": {
                "longitude": 10.286175,
                "latitude": 45.71188
            }
        },
        {
            "address": {
                "region": "Lombardia",
                "province": "BS",
                "municipality": "Collio",
                "road": "Via Passo Maniva"
            },
            "id": 60,
            "elevation": 1725,
            "name": "Passo del Dosso Alto",
            "type": "pass",
            "coordinates": {
                "longitude": 10.406756,
                "latitude": 45.806396
            }
        },
        {
            "address": {
                "region": "Trentino-Alto Adige",
                "province": "TN",
                "municipality": "Tre Ville",
                "road": "SP236"
            },
            "id": 61,
            "elevation": 1295,
            "name": "Passo Daone",
            "type": "pass",
            "coordinates": {
                "longitude": 10.742784,
                "latitude": 46.073231
            }
        },
        {
            "address": {
                "region": "Trentino-Alto Adige",
                "province": "TN",
                "municipality": "Fai della Paganella",
                "road": "SP64"
            },
            "id": 62,
            "elevation": 1032,
            "name": "Passo del Santel",
            "type": "pass",
            "coordinates": {
                "longitude": 11.053491,
                "latitude": 46.176708
            }
        },
        {
            "address": {
                "region": "Trentino-Alto Adige",
                "province": "TN",
                "municipality": "Predaia",
                "road": "Via Predaia"
            },
            "id": 63,
            "elevation": 1250,
            "name": "Passo Predaia",
            "type": "pass",
            "coordinates": {
                "longitude": 11.140652,
                "latitude": 46.326542
            }
        },
        {
            "address": {
                "region": "Trentino-Alto Adige",
                "province": "TN",
                "municipality": "Brez",
                "road": "LS/SP86"
            },
            "id": 64,
            "elevation": 1397,
            "name": "Forcella di Brez",
            "type": "pass",
            "coordinates": {
                "longitude": 11.082373,
                "latitude": 46.451401
            }
        },
        {
            "address": {
                "region": "Trentino-Alto Adige",
                "province": "TN",
                "municipality": "Ronzo-Chienis",
                "road": "SP48"
            },
            "id": 65,
            "elevation": 1169,
            "name": "Passo Santa Barbara",
            "type": "pass",
            "coordinates": {
                "longitude": 10.941449,
                "latitude": 45.895817
            }
        },
        {
            "address": {
                "region": "Veneto",
                "province": "VR",
                "municipality": "Malcesine",
                "road": "Via Panoramica"
            },
            "id": 66,
            "elevation": 375,
            "name": "Passo Campiano",
            "type": "pass",
            "coordinates": {
                "longitude": 10.823421,
                "latitude": 45.763599
            }
        },
        {
            "address": {
                "region": "Veneto",
                "province": "VR",
                "municipality": "Erbezzo",
                "road": "Strada Provinciale 14 dell'Alta Valpantena"
            },
            "id": 67,
            "elevation": 1399,
            "name": "Passo delle Fittanze della Sega",
            "type": "pass",
            "coordinates": {
                "longitude": 10.979204,
                "latitude": 45.683487
            }
        },
        {
            "address": {
                "region": "Veneto",
                "province": "VR",
                "municipality": "Bosco Chiesanuova",
                "road": "Strada Provinciale 6"
            },
            "id": 68,
            "elevation": 1590,
            "name": "Passo del Branchetto",
            "type": "pass",
            "coordinates": {
                "longitude": 11.070292,
                "latitude": 45.679153
            }
        },
        {
            "address": {
                "region": "Trentino-Alto Adige",
                "province": "TN",
                "municipality": "Folgaria",
                "road": "Strada Provinciale dei Francolini"
            },
            "id": 69,
            "elevation": 1610,
            "name": "Passo Coe",
            "type": "pass",
            "coordinates": {
                "longitude": 11.21187,
                "latitude": 45.877357
            }
        },
        {
            "address": {
                "region": "Veneto",
                "province": "VI",
                "municipality": "Laghi",
                "road": "Forcella Valbona, Strada Provinciale dei Francolini"
            },
            "id": 70,
            "elevation": 1782,
            "name": "Valico di Valbona",
            "type": "pass",
            "coordinates": {
                "longitude": 11.272058,
                "latitude": 45.868191
            }
        },
        {
            "address": {
                "region": "Trentino-Alto Adige",
                "province": "TN",
                "municipality": "Trento",
                "road": "località Passo Cimirlo"
            },
            "id": 71,
            "elevation": 730,
            "name": "Passo del Cimirlo",
            "type": "pass",
            "coordinates": {
                "longitude": 11.184726,
                "latitude": 46.067604
            }
        },
        {
            "address": {
                "region": "Trentino-Alto Adige",
                "province": "TN",
                "municipality": "Primiero San Martino di Castrozza",
                "road": "SS347"
            },
            "id": 72,
            "elevation": 1369,
            "name": "Passo Cereda",
            "type": "pass",
            "coordinates": {
                "longitude": 11.904716,
                "latitude": 46.192902
            }
        },
        {
            "address": {
                "region": "Trentino-Alto Adige",
                "province": "BZ",
                "municipality": "Castelrotto",
                "road": "LS/SP64"
            },
            "id": 73,
            "elevation": 1442,
            "name": "Passo Pinei",
            "type": "pass",
            "coordinates": {
                "longitude": 11.624479,
                "latitude": 46.579437
            }
        },
        {
            "address": {
                "region": "Veneto",
                "province": "TV",
                "municipality": "Maser",
                "road": "Forcella Mostaccin, Via Vittorio Emanuele III"
            },
            "id": 74,
            "elevation": 372,
            "name": "Forcella Mostaccin",
            "type": "pass",
            "coordinates": {
                "longitude": 11.960979,
                "latitude": 45.823895
            }
        },
        {
            "address": {
                "region": "Veneto",
                "province": "TV",
                "municipality": "Fregona",
                "road": "Via del Cansiglio"
            },
            "id": 75,
            "elevation": 1127,
            "name": "Passo Crosetta",
            "type": "pass",
            "coordinates": {
                "longitude": 12.40571,
                "latitude": 46.035019
            }
        },
        {
            "address": {
                "region": "Veneto",
                "province": "BL",
                "municipality": "Mel",
                "road": "Via Corrin"
            },
            "id": 76,
            "elevation": 910,
            "name": "Passo Praderadego",
            "type": "pass",
            "coordinates": {
                "longitude": 12.108951,
                "latitude": 46.002865
            }
        },
        {
            "address": {
                "region": "Friuli-Venezia Giulia",
                "province": "UD",
                "municipality": "Chiusaforte",
                "road": "Via Friuli"
            },
            "id": 77,
            "elevation": 1162,
            "name": "Sella Nevea",
            "type": "pass",
            "coordinates": {
                "longitude": 13.478122,
                "latitude": 46.390133
            }
        },
        {
            "address": {
                "region": "Lombardia",
                "province": "BS",
                "municipality": "Caino",
                "road": "Via Nazionale"
            },
            "id": 78,
            "elevation": 574,
            "name": "Colli di Sant’Eusebio",
            "type": "pass",
            "coordinates": {
                "longitude": 10.361373,
                "latitude": 45.609566
            }
        },
        {
            "address": {
                "region": "Lombardia",
                "province": "VA",
                "municipality": "Cittiglio",
                "road": "Passo del Cuvignone, Strada Provinciale 8"
            },
            "id": 79,
            "elevation": 1036,
            "name": "Passo del Cuvignone",
            "type": "pass",
            "coordinates": {
                "longitude": 8.670402,
                "latitude": 45.926945
            }
        },
        {
            "address": {
                "region": "Lombardia",
                "province": "BG",
                "municipality": "Berbenno",
                "road": "SP32"
            },
            "id": 80,
            "elevation": 850,
            "name": "Forcella di Berbenno",
            "type": "pass",
            "coordinates": {
                "longitude": 9.58261,
                "latitude": 45.806503
            }
        },
        {
            "address": {
                "region": "Lombardia",
                "province": "BG",
                "municipality": "Serina",
                "road": "SP27"
            },
            "id": 81,
            "elevation": 1039,
            "name": "Forcella di Valpiana",
            "type": "pass",
            "coordinates": {
                "longitude": 9.738672,
                "latitude": 45.882332
            }
        },
        {
            "address": {
                "region": "Lombardia",
                "province": "BG",
                "municipality": "Selvino",
                "road": "Strada Provinciale Nembro-Selvino-Aviatico"
            },
            "id": 82,
            "elevation": 982,
            "name": "Sella Selvino",
            "type": "pass",
            "coordinates": {
                "longitude": 9.743543,
                "latitude": 45.777565
            }
        },
        {
            "address": {
                "region": "Lombardia",
                "province": "BG",
                "municipality": "Aviatico",
                "road": "Via Martinelli"
            },
            "id": 83,
            "elevation": 1059,
            "name": "Passo di Ganda",
            "type": "pass",
            "coordinates": {
                "longitude": 9.793217,
                "latitude": 45.793411
            }
        },
        {
            "address": {
                "region": "Trentino-Alto Adige",
                "province": "TN",
                "municipality": "Andalo",
                "road": "Sella di Andalo, Strada Statale dei Laghi di Molveno e Tenno"
            },
            "id": 84,
            "elevation": 1042,
            "name": "Sella di Andalo",
            "type": "pass",
            "coordinates": {
                "longitude": 10.998087,
                "latitude": 46.161167
            }
        },
        {
            "address": {
                "region": "Trentino-Alto Adige",
                "province": "TN",
                "municipality": "Folgaria",
                "road": "Località Serrada, SP2"
            },
            "id": 85,
            "elevation": 1250,
            "name": "Sella di Serrada",
            "type": "pass",
            "coordinates": {
                "longitude": 11.153634,
                "latitude": 45.887932
            }
        },
        {
            "address": {
                "region": "Lombardia",
                "province": "BS",
                "municipality": "Vezza d'Oglio",
                "road": "Località Pianaccio Malghe"
            },
            "id": 86,
            "elevation": 2120,
            "name": "Col Carette di Val Bighera",
            "type": "pass",
            "coordinates": {
                "longitude": 10.36339,
                "latitude": 46.256039
            }
        },
        {
            "address": {
                "region": "Lombardia",
                "province": "SO",
                "municipality": "Sernio",
                "road": "Località Lagasol/Guspessa"
            },
            "id": 87,
            "elevation": 1824,
            "name": "Passo di Guspessa",
            "type": "pass",
            "coordinates": {
                "longitude": 10.239644,
                "latitude": 46.201279
            }
        },
        {
            "address": {
                "region": "Lombardia",
                "province": "SO",
                "municipality": "Valdidentro",
                "road": "Via di Fraele"
            },
            "id": 88,
            "elevation": 1941,
            "name": "Passo Torri di Fraele",
            "type": "pass",
            "coordinates": {
                "longitude": 10.310583,
                "latitude": 46.502529
            }
        },
        {
            "address": {
                "region": "Veneto",
                "province": "TV",
                "municipality": "Crespano del Grappa",
                "road": "SP149"
            },
            "id": 89,
            "elevation": 1775,
            "name": "Cima Grappa",
            "type": "peak",
            "coordinates": {
                "longitude": 11.801333,
                "latitude": 45.870975
            }
        },
        {
            "address": {
                "region": "Veneto",
                "province": "BL",
                "municipality": "Alpago",
                "road": "SS51"
            },
            "id": 90,
            "elevation": 488,
            "name": "Sella Fadalto",
            "type": "pass",
            "coordinates": {
                "longitude": 12.336252,
                "latitude": 46.081207
            }
        },
        {
            "address": {
                "region": "Friuli-Venezia Giulia",
                "province": "UD",
                "municipality": "Tarvisio",
                "road": "Via Valcanale"
            },
            "id": 91,
            "elevation": 816,
            "name": "Sella di Camporosso",
            "type": "pass",
            "coordinates": {
                "longitude": 13.518527,
                "latitude": 46.506912
            }
        },
        {
            "address": {
                "region": "Friuli-Venezia Giulia",
                "province": "UD",
                "municipality": "Dogna",
                "road": "Sella Somdogna"
            },
            "id": 92,
            "elevation": 1397,
            "name": "Sella di Sompdogna",
            "type": "pass",
            "coordinates": {
                "longitude": 13.449519,
                "latitude": 46.461895
            }
        },
        {
            "address": {
                "region": "Friuli-Venezia Giulia",
                "province": "UD",
                "municipality": "Paularo",
                "road": "Passo del Cason di Lanza"
            },
            "id": 93,
            "elevation": 1550,
            "name": "Passo del Cason di Lanza",
            "type": "pass",
            "coordinates": {
                "longitude": 13.170998,
                "latitude": 46.565891
            }
        },
        {
            "address": {
                "region": "Friuli-Venezia Giulia",
                "province": "UD",
                "municipality": "Ravascletto",
                "road": "Via Valcalda"
            },
            "id": 94,
            "elevation": 958,
            "name": "Sella Valcalda",
            "type": "pass",
            "coordinates": {
                "longitude": 12.930672,
                "latitude": 46.523941
            }
        },
        {
            "address": {
                "region": "Friuli-Venezia Giulia",
                "province": "UD",
                "municipality": "Sappada",
                "road": "Rifugio Sorgenti del Piave, Strada Provinciale 22 Val Sesis"
            },
            "id": 95,
            "elevation": 1835,
            "name": "Passo Col di Caneva",
            "type": "pass",
            "coordinates": {
                "longitude": 12.709079,
                "latitude": 46.62355
            }
        },
        {
            "address": {
                "region": "Friuli-Venezia Giulia",
                "province": "UD",
                "municipality": "Bordano",
                "road": "Sella di Interneppo, Viale Udine"
            },
            "id": 96,
            "elevation": 315,
            "name": "Sella di Interneppo",
            "type": "pass",
            "coordinates": {
                "longitude": 13.089051,
                "latitude": 46.318275
            }
        },
        {
            "address": {
                "region": "Friuli-Venezia Giulia",
                "province": "UD",
                "municipality": "Nimis",
                "road": "Via Montecroce"
            },
            "id": 97,
            "elevation": 267,
            "name": "Passo Montecroce",
            "type": "pass",
            "coordinates": {
                "longitude": 13.290185,
                "latitude": 46.19685
            }
        },
        {
            "address": {
                "region": "Trentino-Alto Adige",
                "province": "BZ",
                "municipality": "Vandoies",
                "road": "Kegelbergstraße"
            },
            "id": 98,
            "elevation": 1720,
            "name": "Kegelbergsattel",
            "type": "pass",
            "coordinates": {
                "longitude": 11.689453,
                "latitude": 46.838589
            }
        },
        {
            "address": {
                "region": "Trentino-Alto Adige",
                "province": "BZ",
                "municipality": "Funes",
                "road": "Via Coller"
            },
            "id": 99,
            "elevation": 1863,
            "name": "Passo di Eores - Rodella",
            "type": "pass",
            "coordinates": {
                "longitude": 11.770799,
                "latitude": 46.666534
            }
        },
        {
            "address": {
                "region": "Trentino-Alto Adige",
                "province": "BZ",
                "municipality": "Vadena",
                "road": "Sella di Novale al Varco, LS/SP162"
            },
            "id": 100,
            "elevation": 382,
            "name": "Sella di Novale al Varco - Koyotenpass",
            "type": "pass",
            "coordinates": {
                "longitude": 11.282423,
                "latitude": 46.384449
            }
        },
        {
            "address": {
                "region": "Trentino-Alto Adige",
                "province": "BZ",
                "municipality": "Castelrotto",
                "road": "Compatsch"
            },
            "id": 101,
            "elevation": 1359,
            "name": "Alpe di Siusi",
            "type": "peak",
            "coordinates": {
                "longitude": 11.618042,
                "latitude": 46.540161
            }
        },
        {
            "address": {
                "region": "Trentino-Alto Adige",
                "province": "BZ",
                "municipality": "Dobbiaco",
                "road": "Prato Piazza"
            },
            "id": 102,
            "elevation": 2000,
            "name": "Passo Prato Piazza",
            "type": "pass",
            "coordinates": {
                "longitude": 12.178946,
                "latitude": 46.653797
            }
        },
        {
            "address": {
                "region": "Veneto",
                "province": "BL",
                "municipality": "Auronzo di Cadore",
                "road": "SP49"
            },
            "id": 103,
            "elevation": 1757,
            "name": "Col di Misurina",
            "type": "pass",
            "coordinates": {
                "longitude": 12.250614,
                "latitude": 46.57674
            }
        },
        {
            "address": {
                "region": "Veneto",
                "province": "BL",
                "municipality": "Santo Stefano di Cadore",
                "road": "SP30"
            },
            "id": 104,
            "elevation": 1606,
            "name": "Forcella Zovo",
            "type": "pass",
            "coordinates": {
                "longitude": 12.591105,
                "latitude": 46.602573
            }
        },
        {
            "address": {
                "region": "Friuli-Venezia Giulia",
                "province": "UD",
                "municipality": "Sappada",
                "road": "SR355"
            },
            "id": 105,
            "elevation": 1290,
            "name": "Cima Sappada",
            "type": "pass",
            "coordinates": {
                "longitude": 12.72131,
                "latitude": 46.569363
            }
        },
        {
            "address": {
                "region": "Trentino-Alto Adige",
                "province": "TN",
                "municipality": "Castello Tesino",
                "road": "SP79"
            },
            "id": 106,
            "elevation": 1630,
            "name": "Passo di Monte Agaro",
            "type": "pass",
            "coordinates": {
                "longitude": 11.64451,
                "latitude": 46.10606
            }
        },
        {
            "address": {
                "region": "Veneto",
                "province": "VR",
                "municipality": "San Zeno di Montagna",
                "road": "Strada per Naole"
            },
            "id": 107,
            "elevation": 1675,
            "name": "Bocchetta di Naole",
            "type": "pass",
            "coordinates": {
                "longitude": 10.767792,
                "latitude": 45.659698
            }
        },
        {
            "address": {
                "region": "Veneto",
                "province": "VI",
                "municipality": "Lastebasse",
                "road": "Strada Provinciale dei Francolini"
            },
            "id": 108,
            "elevation": 1557,
            "name": "Bocchetta degli Alpini",
            "type": "pass",
            "coordinates": {
                "longitude": 11.302925,
                "latitude": 45.878677
            }
        },
        {
            "address": {
                "region": "Lombardia",
                "province": "SO",
                "municipality": "Bormio",
                "road": "Strada Statale dello Stelvio"
            },
            "id": 109,
            "elevation": 2758,
            "name": "Passo dello Stelvio",
            "type": "pass",
            "coordinates": {
                "longitude": 10.453029,
                "latitude": 46.528635
            }
        },
        {
            "address": {
                "region": "Piemonte",
                "province": "CN",
                "municipality": "Pontechianale",
                "road": "SP251"
            },
            "id": 110,
            "elevation": 2748,
            "name": "Colle dell'Agnello",
            "type": "pass",
            "coordinates": {
                "longitude": 6.9795,
                "latitude": 44.6838
            }
        },
        {
            "address": {
                "region": "Lombardia",
                "province": "SO",
                "municipality": "Valfurva",
                "road": "Strada Provinciale del Passo Gavia"
            },
            "id": 111,
            "elevation": 2621,
            "name": "Passo Gavia",
            "type": "pass",
            "coordinates": {
                "longitude": 10.4879,
                "latitude": 46.343601
            }
        },
        {
            "address": {
                "region": "Valle d'Aosta",
                "province": "AO",
                "municipality": "Valsavarenche",
                "road": "SP50"
            },
            "id": 112,
            "elevation": 2612,
            "name": "Colle del Nivolet",
            "type": "peak",
            "coordinates": {
                "longitude": 7.141538,
                "latitude": 45.480273
            }
        },
        {
            "address": {
                "region": "Lombardia",
                "province": "SO",
                "municipality": "Valdidentro",
                "road": "Passo Umbrail"
            },
            "id": 113,
            "elevation": 2503,
            "name": "Umbrail Pass",
            "type": "pass",
            "coordinates": {
                "longitude": 10.433149,
                "latitude": 46.541508
            }
        },
        {
            "address": {
                "region": "Piemonte",
                "province": "CN",
                "municipality": "Castelmagno",
                "road": "Colle Fauniera"
            },
            "id": 114,
            "elevation": 2475,
            "name": "Colle Fauniera",
            "type": "pass",
            "coordinates": {
                "longitude": 7.121887,
                "latitude": 44.385712
            }
        },
        {
            "address": {
                "region": "Valle d'Aosta",
                "province": "AO",
                "municipality": "Saint-Rhémy-en-Bosses",
                "road": "SS27"
            },
            "id": 115,
            "elevation": 2473,
            "name": "Colle del Gran San Bernardo",
            "type": "pass",
            "coordinates": {
                "longitude": 7.165575,
                "latitude": 45.868977
            }
        },
        {
            "address": {
                "region": "Piemonte",
                "province": "TO",
                "municipality": "Sauze d'Oulx",
                "road": "Colle Blegier, Strada dell'Assietta"
            },
            "id": 116,
            "elevation": 2381,
            "name": "Colle di Blegier",
            "type": "pass",
            "coordinates": {
                "longitude": 6.916366,
                "latitude": 45.037201
            }
        },
        {
            "address": {
                "region": "Piemonte",
                "province": "CN",
                "municipality": "Stroppo",
                "road": "Colle di Sampeyre"
            },
            "id": 117,
            "elevation": 2294,
            "name": "Colle di Sampeyre",
            "type": "pass",
            "coordinates": {
                "longitude": 7.119,
                "latitude": 44.550999
            }
        },
        {
            "address": {
                "region": "Lombardia",
                "province": "SO",
                "municipality": "Livigno",
                "road": "SS301"
            },
            "id": 118,
            "elevation": 2291,
            "name": "Passo del Foscagno",
            "type": "pass",
            "coordinates": {
                "longitude": 10.209,
                "latitude": 46.494999
            }
        },
        {
            "address": {
                "region": "Trentino-Alto Adige",
                "province": "BZ",
                "municipality": "Selva di Val Gardena",
                "road": "Passo Sella"
            },
            "id": 119,
            "elevation": 2240,
            "name": "Passo Sella",
            "type": "pass",
            "coordinates": {
                "longitude": 11.7667,
                "latitude": 46.5084
            }
        },
        {
            "address": {
                "region": "Trentino-Alto Adige",
                "province": "TN",
                "municipality": "Canazei",
                "road": "SR48"
            },
            "id": 120,
            "elevation": 2239,
            "name": "Passo Pordoi",
            "type": "pass",
            "coordinates": {
                "longitude": 11.812277,
                "latitude": 46.487518
            }
        },
        {
            "address": {
                "region": "Veneto",
                "province": "BL",
                "municipality": "Colle Santa Lucia",
                "road": "SP638"
            },
            "id": 121,
            "elevation": 2236,
            "name": "Passo Giau",
            "type": "pass",
            "coordinates": {
                "longitude": 12.0498,
                "latitude": 46.483799
            }
        },
        {
            "address": {
                "region": "Trentino-Alto Adige",
                "province": "BZ",
                "municipality": "Campo di Trens",
                "road": "SS508"
            },
            "id": 122,
            "elevation": 2214,
            "name": "Passo di Pennes",
            "type": "pass",
            "coordinates": {
                "longitude": 11.43887,
                "latitude": 46.819534
            }
        },
        {
            "address": {
                "region": "Lombardia",
                "province": "SO",
                "municipality": "Livigno",
                "road": "Passo Eira, Via del Foscagno"
            },
            "id": 123,
            "elevation": 2208,
            "name": "Passo dell'Eira",
            "type": "pass",
            "coordinates": {
                "longitude": 10.1652,
                "latitude": 46.5382
            }
        },
        {
            "address": {
                "region": "Veneto",
                "province": "BL",
                "municipality": "Cortina d'Ampezzo",
                "road": "Passo Valparola, SP24"
            },
            "id": 124,
            "elevation": 2192,
            "name": "Passo di Valparola",
            "type": "pass",
            "coordinates": {
                "longitude": 11.983464,
                "latitude": 46.534433
            }
        },
        {
            "address": {
                "region": "Piemonte",
                "province": "TO",
                "municipality": "Meana di Susa",
                "road": "Strada Provinciale del Colle delle Finestre"
            },
            "id": 125,
            "elevation": 2176,
            "name": "Colle delle Finestre",
            "type": "pass",
            "coordinates": {
                "longitude": 7.052536,
                "latitude": 45.07428
            }
        },
        {
            "address": {
                "region": "Trentino-Alto Adige",
                "province": "BZ",
                "municipality": "Corvara in Badia",
                "road": "Passo Gardena, Streda de Gherdëina"
            },
            "id": 126,
            "elevation": 2121,
            "name": "Passo Gardena",
            "type": "pass",
            "coordinates": {
                "longitude": 11.8084,
                "latitude": 46.549801
            }
        },
        {
            "address": {
                "region": "Veneto",
                "province": "BL",
                "municipality": "Cortina d'Ampezzo",
                "road": "SR48"
            },
            "id": 127,
            "elevation": 2109,
            "name": "Passo Falzarego",
            "type": "pass",
            "coordinates": {
                "longitude": 12.0094,
                "latitude": 46.518902
            }
        },
        {
            "address": {
                "region": "Trentino-Alto Adige",
                "province": "BZ",
                "municipality": "San Leonardo in Passiria",
                "road": "Via Passo Giovo"
            },
            "id": 128,
            "elevation": 2094,
            "name": "Passo del Giovo",
            "type": "pass",
            "coordinates": {
                "longitude": 11.314,
                "latitude": 46.839001
            }
        },
        {
            "address": {
                "region": "Piemonte",
                "province": "TO",
                "municipality": "Moncenisio",
                "road": "SS25"
            },
            "id": 129,
            "elevation": 2083,
            "name": "Colle del Moncenisio",
            "type": "pass",
            "coordinates": {
                "longitude": 6.962886,
                "latitude": 45.205143
            }
        },
        {
            "address": {
                "region": "Veneto",
                "province": "BL",
                "municipality": "Rocca Pietore",
                "road": "SP641"
            },
            "id": 130,
            "elevation": 2057,
            "name": "Passo Fedaia",
            "type": "pass",
            "coordinates": {
                "longitude": 11.889,
                "latitude": 46.453499
            }
        },
        {
            "address": {
                "region": "Trentino-Alto Adige",
                "province": "BZ",
                "municipality": "Rasun-Anterselva",
                "road": "SP44"
            },
            "id": 131,
            "elevation": 2052,
            "name": "Passo Stalle",
            "type": "pass",
            "coordinates": {
                "longitude": 12.199287,
                "latitude": 46.887798
            }
        },
        {
            "address": {
                "region": "Trentino-Alto Adige",
                "province": "TN",
                "municipality": "Telve",
                "road": "Passo Manghen, Strada Provinciale del Passo del Manghen"
            },
            "id": 132,
            "elevation": 2047,
            "name": "Passo Manghen",
            "type": "pass",
            "coordinates": {
                "longitude": 11.4415,
                "latitude": 46.173199
            }
        },
        {
            "address": {
                "region": "Piemonte",
                "province": "TO",
                "municipality": "Sestriere",
                "road": "Strada Statale 23 del Colle di Sestriere"
            },
            "id": 133,
            "elevation": 2035,
            "name": "Colle del Sestriere",
            "type": "pass",
            "coordinates": {
                "longitude": 6.880059,
                "latitude": 44.956841
            }
        },
        {
            "address": {
                "region": "Trentino-Alto Adige",
                "province": "TN",
                "municipality": "Predazzo",
                "road": "SP81"
            },
            "id": 134,
            "elevation": 2033,
            "name": "Passo Valles",
            "type": "pass",
            "coordinates": {
                "longitude": 11.8007,
                "latitude": 46.3386
            }
        },
        {
            "address": {
                "region": "Trentino-Alto Adige",
                "province": "BZ",
                "municipality": "San Martino in Badia",
                "road": "Passo delle Erbe, LS/SP29"
            },
            "id": 135,
            "elevation": 2003,
            "name": "Passo delle Erbe",
            "type": "pass",
            "coordinates": {
                "longitude": 11.8142,
                "latitude": 46.674999
            }
        },
        {
            "address": {
                "region": "Lombardia",
                "province": "BG",
                "municipality": "Averara",
                "road": "Passo San Marco, Strada provinciale 8 del Passo San Marco"
            },
            "id": 136,
            "elevation": 1985,
            "name": "Passo di San Marco",
            "type": "pass",
            "coordinates": {
                "longitude": 9.622607,
                "latitude": 46.046936
            }
        },
        {
            "address": {
                "region": "Trentino-Alto Adige",
                "province": "TN",
                "municipality": "Primiero San Martino di Castrozza",
                "road": "SS50"
            },
            "id": 137,
            "elevation": 1970,
            "name": "Passo Rolle",
            "type": "pass",
            "coordinates": {
                "longitude": 11.7869,
                "latitude": 46.296398
            }
        },
        {
            "address": {
                "region": "Trentino-Alto Adige",
                "province": "TN",
                "municipality": "Moena",
                "road": "SS346"
            },
            "id": 138,
            "elevation": 1918,
            "name": "Passo di San Pellegrino",
            "type": "pass",
            "coordinates": {
                "longitude": 11.794,
                "latitude": 46.3783
            }
        },
        {
            "address": {
                "region": "Valle d'Aosta",
                "province": "AO",
                "municipality": "Morgex",
                "road": "Colle San Carlo"
            },
            "id": 139,
            "elevation": 1911,
            "name": "Colle San Carlo",
            "type": "pass",
            "coordinates": {
                "longitude": 6.992276,
                "latitude": 45.742348
            }
        },
        {
            "address": {
                "region": "Piemonte",
                "province": "CN",
                "municipality": "Limone Piemonte",
                "road": "Strada Forti"
            },
            "id": 140,
            "elevation": 1908,
            "name": "Colle di Tenda",
            "type": "pass",
            "coordinates": {
                "longitude": 7.5637,
                "latitude": 44.157101
            }
        },
        {
            "address": {
                "region": "Lombardia",
                "province": "BS",
                "municipality": "Breno",
                "road": "SPBS345"
            },
            "id": 141,
            "elevation": 1892,
            "name": "Passo di Crocedomini",
            "type": "pass",
            "coordinates": {
                "longitude": 10.4094,
                "latitude": 45.9072
            }
        },
        {
            "address": {
                "region": "Trentino-Alto Adige",
                "province": "TN",
                "municipality": "Vermiglio",
                "road": "SS42"
            },
            "id": 142,
            "elevation": 1883,
            "name": "Passo del Tonale",
            "type": "pass",
            "coordinates": {
                "longitude": 10.582,
                "latitude": 46.2579
            }
        },
        {
            "address": {
                "region": "Lombardia",
                "province": "BS",
                "municipality": "Monno",
                "road": "Passo del Mortirolo, Strada del Mortirolo"
            },
            "id": 143,
            "elevation": 1852,
            "name": "Passo del Mortirolo",
            "type": "pass",
            "coordinates": {
                "longitude": 10.299125,
                "latitude": 46.248131
            }
        },
        {
            "address": {
                "region": "Lombardia",
                "province": "BG",
                "municipality": "Schilpario",
                "road": "SPBG294"
            },
            "id": 144,
            "elevation": 1828,
            "name": "Passo di Vivione",
            "type": "pass",
            "coordinates": {
                "longitude": 10.19527,
                "latitude": 46.033352
            }
        },
        {
            "address": {
                "region": "Veneto",
                "province": "BL",
                "municipality": "Cortina d'Ampezzo",
                "road": "Strada Regionale 48 delle Dolomiti"
            },
            "id": 145,
            "elevation": 1805,
            "name": "Passo Tre Croci",
            "type": "pass",
            "coordinates": {
                "longitude": 12.200918,
                "latitude": 46.557354
            }
        },
        {
            "address": {
                "region": "Trentino-Alto Adige",
                "province": "BZ",
                "municipality": "Nova Levante",
                "road": "Via Carezza"
            },
            "id": 146,
            "elevation": 1741,
            "name": "Passo di Costalunga",
            "type": "pass",
            "coordinates": {
                "longitude": 11.6085,
                "latitude": 46.404499
            }
        },
        {
            "address": {
                "region": "Trentino-Alto Adige",
                "province": "TN",
                "municipality": "Pinzolo",
                "road": "Strada Statale 239 di Campiglio"
            },
            "id": 147,
            "elevation": 1681,
            "name": "Passo Campo Carlo Magno",
            "type": "pass",
            "coordinates": {
                "longitude": 10.838742,
                "latitude": 46.241959
            }
        },
        {
            "address": {
                "region": "Lombardia",
                "province": "BS",
                "municipality": "Collio",
                "road": "Via Maniva"
            },
            "id": 148,
            "elevation": 1660,
            "name": "Passo di Maniva",
            "type": "pass",
            "coordinates": {
                "longitude": 10.407637,
                "latitude": 45.823608
            }
        },
        {
            "address": {
                "region": "Trentino-Alto Adige",
                "province": "BZ",
                "municipality": "Sesto",
                "road": "Passo di Monte Croce di Comélico, Via San Giuseppe"
            },
            "id": 149,
            "elevation": 1636,
            "name": "Passo di Monte Croce di Comelico",
            "type": "pass",
            "coordinates": {
                "longitude": 12.420173,
                "latitude": 46.655975
            }
        },
        {
            "address": {
                "region": "Veneto",
                "province": "BL",
                "municipality": "La Valle Agordina",
                "road": "SP347"
            },
            "id": 150,
            "elevation": 1605,
            "name": "Passo Duran",
            "type": "pass",
            "coordinates": {
                "longitude": 12.095175,
                "latitude": 46.323193
            }
        },
        {
            "address": {
                "region": "Friuli-Venezia Giulia",
                "province": "UD",
                "municipality": "Pontebba",
                "road": "Passo di Pramollo, SP110"
            },
            "id": 151,
            "elevation": 1530,
            "name": "Passo di Pramollo",
            "type": "pass",
            "coordinates": {
                "longitude": 13.27569,
                "latitude": 46.55991
            }
        },
        {
            "address": {
                "region": "Veneto",
                "province": "BL",
                "municipality": "Cortina d'Ampezzo",
                "road": "SS51"
            },
            "id": 152,
            "elevation": 1529,
            "name": "Passo Cimabanche",
            "type": "pass",
            "coordinates": {
                "longitude": 12.1826,
                "latitude": 46.619999
            }
        },
        {
            "address": {
                "region": "Trentino-Alto Adige",
                "province": "BZ",
                "municipality": "Senale-San Felice",
                "road": "Passo Palade, Strada Statale 238 del Passo di Palade"
            },
            "id": 153,
            "elevation": 1518,
            "name": "Passo Palade",
            "type": "pass",
            "coordinates": {
                "longitude": 11.111814,
                "latitude": 46.529522
            }
        },
        {
            "address": {
                "region": "Lombardia",
                "province": "BS",
                "municipality": "Anfo",
                "road": "Via Passo Maniva"
            },
            "id": 154,
            "elevation": 1450,
            "name": "Passo di Baremone",
            "type": "pass",
            "coordinates": {
                "longitude": 10.463834,
                "latitude": 45.79081
            }
        },
        {
            "address": {
                "region": "Piemonte",
                "province": "CN",
                "municipality": "Pamparato",
                "road": "SP178"
            },
            "id": 155,
            "elevation": 1381,
            "name": "Colle di Casotto",
            "type": "pass",
            "coordinates": {
                "longitude": 7.944403,
                "latitude": 44.216602
            }
        },
        {
            "address": {
                "region": "Trentino-Alto Adige",
                "province": "BZ",
                "municipality": "Brennero",
                "road": "Via San Valentino"
            },
            "id": 156,
            "elevation": 1374,
            "name": "Passo del Brennero",
            "type": "pass",
            "coordinates": {
                "longitude": 11.506548,
                "latitude": 47.006962
            }
        },
        {
            "address": {
                "region": "Trentino-Alto Adige",
                "province": "TN",
                "municipality": "Primiero San Martino di Castrozza",
                "road": "Passo Cereda, SS347"
            },
            "id": 157,
            "elevation": 1372,
            "name": "Passo di Cereda",
            "type": "pass",
            "coordinates": {
                "longitude": 11.90403,
                "latitude": 46.192844
            }
        },
        {
            "address": {
                "region": "Trentino-Alto Adige",
                "province": "TN",
                "municipality": "Ruffrè-Mendola",
                "road": "SS42"
            },
            "id": 158,
            "elevation": 1363,
            "name": "Passo della Mendola",
            "type": "pass",
            "coordinates": {
                "longitude": 11.2072,
                "latitude": 46.416801
            }
        },
        {
            "address": {
                "region": "Friuli-Venezia Giulia",
                "province": "UD",
                "municipality": "Paluzza",
                "road": "SS52"
            },
            "id": 159,
            "elevation": 1360,
            "name": "Passo di Monte Croce Carnico",
            "type": "pass",
            "coordinates": {
                "longitude": 12.944909,
                "latitude": 46.603664
            }
        },
        {
            "address": {
                "region": "Lombardia",
                "province": "BG",
                "municipality": "Torre de' Busi",
                "road": "Via Zumello"
            },
            "id": 160,
            "elevation": 1340,
            "name": "Valico di Valcava",
            "type": "pass",
            "coordinates": {
                "longitude": 9.513907,
                "latitude": 45.785332
            }
        },
        {
            "address": {
                "region": "Piemonte",
                "province": "TO",
                "municipality": "Rubiana",
                "road": "Parco Naturale Col del Lys"
            },
            "id": 161,
            "elevation": 1311,
            "name": "Colle del Lys",
            "type": "pass",
            "coordinates": {
                "longitude": 7.385516,
                "latitude": 45.176197
            }
        },
        {
            "address": {
                "region": "Lombardia",
                "province": "BG",
                "municipality": "Colere",
                "road": "Strada Provinciale della Val Seriana"
            },
            "id": 162,
            "elevation": 1297,
            "name": "Passo della Presolana",
            "type": "pass",
            "coordinates": {
                "longitude": 10.098444,
                "latitude": 45.929195
            }
        },
        {
            "address": {
                "region": "Liguria",
                "province": "IM",
                "municipality": "Mendatica",
                "road": "Colle San Bernardo di Mendatica, Via Provinciale Monesi"
            },
            "id": 163,
            "elevation": 1265,
            "name": "Colle San Bernardo di Mendatica",
            "type": "pass",
            "coordinates": {
                "longitude": 7.784328,
                "latitude": 44.084904
            }
        },
        {
            "address": {
                "region": "Piemonte",
                "province": "CN",
                "municipality": "Ormea",
                "road": "Colle di Caprauna, SP216"
            },
            "id": 164,
            "elevation": 1375,
            "name": "Colle Caprauna",
            "type": "pass",
            "coordinates": {
                "longitude": 7.929726,
                "latitude": 44.108143
            }
        },
        {
            "address": {
                "region": "Trentino-Alto Adige",
                "province": "BZ",
                "municipality": "Dobbiaco",
                "road": "Via Val Pusteria"
            },
            "id": 165,
            "elevation": 1209,
            "name": "Sella di Dobbiaco",
            "type": "pass",
            "coordinates": {
                "longitude": 12.2303,
                "latitude": 46.730301
            }
        },
        {
            "address": {
                "region": "Lombardia",
                "province": "BG",
                "municipality": "Oneta",
                "road": "SP46"
            },
            "id": 166,
            "elevation": 1264,
            "name": "Passo di Zambla",
            "type": "pass",
            "coordinates": {
                "longitude": 9.797798,
                "latitude": 45.88696
            }
        },
        {
            "address": {
                "region": "Lombardia",
                "province": "SO",
                "municipality": "Aprica",
                "road": "Via Magnolta"
            },
            "id": 167,
            "elevation": 1175,
            "name": "Passo dell'Aprica",
            "type": "pass",
            "coordinates": {
                "longitude": 10.149393,
                "latitude": 46.153408
            }
        },
        {
            "address": {
                "region": "Friuli-Venezia Giulia",
                "province": "UD",
                "municipality": "Tarvisio",
                "road": "Passo del Predil, SS54"
            },
            "id": 168,
            "elevation": 1156,
            "name": "Passo del Predil",
            "type": "pass",
            "coordinates": {
                "longitude": 13.5781,
                "latitude": 46.418598
            }
        },
        {
            "address": {
                "region": "Liguria",
                "province": "SV",
                "municipality": "Calizzano",
                "road": "Colle del Melogno, Strada provinciale del Colle del Melogno"
            },
            "id": 169,
            "elevation": 1028,
            "name": "Colle del Melogno",
            "type": "pass",
            "coordinates": {
                "longitude": 8.197115,
                "latitude": 44.230247
            }
        },
        {
            "address": {
                "region": "Friuli-Venezia Giulia",
                "province": "UD",
                "municipality": "Tarvisio",
                "road": "SS54"
            },
            "id": 170,
            "elevation": 854,
            "name": "Valico di Fusine-Rateče",
            "type": "pass",
            "coordinates": {
                "longitude": 13.7037,
                "latitude": 46.4972
            }
        },
        {
            "address": {
                "region": "Friuli-Venezia Giulia",
                "province": "UD",
                "municipality": "Resia",
                "road": "SR646"
            },
            "id": 171,
            "elevation": 851,
            "name": "Valico di Tanamea",
            "type": "pass",
            "coordinates": {
                "longitude": 13.355384,
                "latitude": 46.308758
            }
        },
        {
            "address": {
                "region": "Lombardia",
                "province": "CO",
                "municipality": "Magreglio",
                "road": "Strada provinciale 41 Vallassina"
            },
            "id": 172,
            "elevation": 754,
            "name": "Colle del Ghisallo",
            "type": "pass",
            "coordinates": {
                "longitude": 9.267697,
                "latitude": 45.924377
            }
        },
        {
            "address": {
                "region": "Trentino-Alto Adige",
                "province": "TN",
                "municipality": "Bleggio Superiore",
                "road": "Passo del Durone, Strada Provinciale del Durone"
            },
            "id": 173,
            "elevation": 1000,
            "name": "Passo Duron",
            "type": "pass",
            "coordinates": {
                "longitude": 10.79613,
                "latitude": 46.036861
            }
        },
        {
            "address": {
                "region": "Trentino-Alto Adige",
                "province": "TN",
                "municipality": "Fiavè",
                "road": "Passo Del Ballino, Strada Statale 421 dei Laghi di Molveno e Tenno"
            },
            "id": 174,
            "elevation": 765,
            "name": "Passo Del Ballino",
            "type": "pass",
            "coordinates": {
                "longitude": 10.819881,
                "latitude": 45.974449
            }
        },
        {
            "address": {
                "region": "Piemonte",
                "province": "CN",
                "municipality": "Garessio",
                "road": "Colle San Bernardo, Strada provinciale del Colle di San Bernardo"
            },
            "id": 175,
            "elevation": 957,
            "name": "Colle San Bernardo",
            "type": "pass",
            "coordinates": {
                "longitude": 8.047287,
                "latitude": 44.177345
            }
        },
        {
            "address": {
                "region": "Liguria",
                "province": "IM",
                "municipality": "Cesio",
                "road": "Colle San Bartolomeo, SP21"
            },
            "id": 176,
            "elevation": 620,
            "name": "Colle San Bartolomeo",
            "type": "pass",
            "coordinates": {
                "longitude": 7.952103,
                "latitude": 44.010227
            }
        },
        {
            "address": {
                "region": "Liguria",
                "province": "IM",
                "municipality": "Molini di Triora",
                "road": "SP17"
            },
            "id": 177,
            "elevation": 1387,
            "name": "Passo della Teglia",
            "type": "pass",
            "coordinates": {
                "longitude": 7.833737,
                "latitude": 43.994949
            }
        },
        {
            "address": {
                "region": "Piemonte",
                "province": "VC",
                "municipality": "Civiasco",
                "road": "Passo della Colma / Colma di Civiasco"
            },
            "id": 178,
            "elevation": 942,
            "name": "Passo della Colma",
            "type": "pass",
            "coordinates": {
                "longitude": 8.322272,
                "latitude": 45.809193
            }
        },
        {
            "address": {
                "region": "Piemonte",
                "province": "BI",
                "municipality": "Mosso",
                "road": "Panoramica Zegna"
            },
            "id": 179,
            "elevation": 1331,
            "name": "Bocchetta di Margosio",
            "type": "pass",
            "coordinates": {
                "longitude": 8.127351,
                "latitude": 45.6674
            }
        },
        {
            "address": {
                "region": "Piemonte",
                "province": "VB",
                "municipality": "Omegna",
                "road": "Via Mottarone"
            },
            "id": 180,
            "elevation": 1492,
            "name": "Mottarone",
            "type": "peak",
            "coordinates": {
                "longitude": 8.450777,
                "latitude": 45.880135
            }
        },
        {
            "address": {
                "region": "Piemonte",
                "province": "VB",
                "municipality": "San Bernardino Verbano",
                "road": "Via Ompio"
            },
            "id": 181,
            "elevation": 940,
            "name": "Alpe Ompio",
            "type": "peak",
            "coordinates": {
                "longitude": 8.470016,
                "latitude": 45.976444
            }
        },
        {
            "address": {
                "region": "Piemonte",
                "province": "VB",
                "municipality": "Miazzina",
                "road": "Via al Memoriale degli Alpini"
            },
            "id": 182,
            "elevation": 877,
            "name": "Alpe Pala",
            "type": "peak",
            "coordinates": {
                "longitude": 8.524446,
                "latitude": 45.984947
            }
        },
        {
            "address": {
                "region": "Piemonte",
                "province": "VB",
                "municipality": "Oggebbio",
                "road": "strada Luigi Cadorna"
            },
            "id": 183,
            "elevation": 1243,
            "name": "Piancavallo",
            "type": "pass",
            "coordinates": {
                "longitude": 8.628516,
                "latitude": 46.009361
            }
        },
        {
            "address": {
                "region": "Piemonte",
                "province": "VB",
                "municipality": "Trarego Viggiona",
                "road": "Il Colle Trarego"
            },
            "id": 184,
            "elevation": 1238,
            "name": "Alpe Colle",
            "type": "pass",
            "coordinates": {
                "longitude": 8.625935,
                "latitude": 46.024532
            }
        },
        {
            "address": {
                "region": "Piemonte",
                "province": "VB",
                "municipality": "Trarego Viggiona",
                "road": "Il Colle Trarego"
            },
            "id": 185,
            "elevation": 1050,
            "name": "Alpe Trunno",
            "type": "pass",
            "coordinates": {
                "longitude": 8.627272,
                "latitude": 46.036003
            }
        },
        {
            "address": {
                "region": "Piemonte",
                "province": "VB",
                "municipality": "Trarego Viggiona",
                "road": "Il Colle Trarego"
            },
            "id": 186,
            "elevation": 1116,
            "name": "Monte Carza",
            "type": "pass",
            "coordinates": {
                "longitude": 8.671566,
                "latitude": 46.041283
            }
        },
        {
            "address": {
                "region": "Lombardia",
                "province": "VA",
                "municipality": "Maccagno con Pino e Veddasca",
                "road": "SP5dir"
            },
            "id": 187,
            "elevation": 1179,
            "name": "Passo Forcora",
            "type": "pass",
            "coordinates": {
                "longitude": 8.777733,
                "latitude": 46.074764
            }
        },
        {
            "address": {
                "region": "Lombardia",
                "province": "CO",
                "municipality": "Alta Valle Intelvi",
                "road": "Via Sighignola"
            },
            "id": 188,
            "elevation": 1320,
            "name": "Balcone d'Italia",
            "type": "peak",
            "coordinates": {
                "longitude": 8.992234,
                "latitude": 45.968178
            }
        },
        {
            "address": {
                "region": "Lombardia",
                "province": "CO",
                "municipality": "Cernobbio",
                "road": "Via per il Bisbino"
            },
            "id": 189,
            "elevation": 1325,
            "name": "Monte Bisbino",
            "type": "peak",
            "coordinates": {
                "longitude": 9.06584,
                "latitude": 45.872814
            }
        },
        {
            "address": {
                "region": "Lombardia",
                "province": "CO",
                "municipality": "Zelbio",
                "road": "Strada provinciale 44 del Piano del Tivano"
            },
            "id": 190,
            "elevation": 957,
            "name": "Pian del Tivano",
            "type": "pass",
            "coordinates": {
                "longitude": 9.21209,
                "latitude": 45.896526
            }
        },
        {
            "address": {
                "region": "Lombardia",
                "province": "CO",
                "municipality": "Sormano",
                "road": "Strada provinciale 44 del Piano del Tivano"
            },
            "id": 191,
            "elevation": 1124,
            "name": "Colma di Sormano",
            "type": "pass",
            "coordinates": {
                "longitude": 9.229197,
                "latitude": 45.882801
            }
        },
        {
            "address": {
                "region": "Lombardia",
                "province": "LC",
                "municipality": "Esino Lario",
                "road": "Strada Provinciale 65 di Esino"
            },
            "id": 192,
            "elevation": 1204,
            "name": "Passo Agueglio",
            "type": "pass",
            "coordinates": {
                "longitude": 9.32618,
                "latitude": 46.009197
            }
        },
        {
            "address": {
                "region": "Lombardia",
                "province": "LC",
                "municipality": "Ballabio",
                "road": "Piazzale Daniele Chiappa"
            },
            "id": 193,
            "elevation": 1280,
            "name": "Piani dei Resinelli",
            "type": "peak",
            "coordinates": {
                "longitude": 9.39367,
                "latitude": 45.905441
            }
        },
        {
            "address": {
                "region": "Lombardia",
                "province": "LC",
                "municipality": "Ballabio",
                "road": "Strada Provinciale 62 della Valsassina"
            },
            "id": 194,
            "elevation": 728,
            "name": "Colle di Balisio",
            "type": "pass",
            "coordinates": {
                "longitude": 9.436376,
                "latitude": 45.918083
            }
        },
        {
            "address": {
                "region": "Lombardia",
                "province": "LC",
                "municipality": "Cassina Valsassina",
                "road": "Passo Culmine San Pietro, Via Valtaleggio"
            },
            "id": 195,
            "elevation": 1258,
            "name": "Culmine San Pietro",
            "type": "pass",
            "coordinates": {
                "longitude": 9.493899,
                "latitude": 45.902218
            }
        },
        {
            "address": {
                "region": "Lombardia",
                "province": "LC",
                "municipality": "Morterone",
                "road": "Strada Provinciale 63 di Morterone"
            },
            "id": 196,
            "elevation": 1148,
            "name": "Forcella di Olino",
            "type": "pass",
            "coordinates": {
                "longitude": 9.474619,
                "latitude": 45.888443
            }
        },
        {
            "address": {
                "region": "Lombardia",
                "province": "LC",
                "municipality": "Carenno",
                "road": "Via Forcella Alta"
            },
            "id": 197,
            "elevation": 1276,
            "name": "Passo del Pertus",
            "type": "pass",
            "coordinates": {
                "longitude": 9.492488,
                "latitude": 45.806156
            }
        },
        {
            "address": {
                "region": "Lombardia",
                "province": "BG",
                "municipality": "Val Brembilla",
                "road": "Forcella di Bura, SP24"
            },
            "id": 198,
            "elevation": 884,
            "name": "Forcella di Bura",
            "type": "pass",
            "coordinates": {
                "longitude": 9.584177,
                "latitude": 45.860252
            }
        },
        {
            "address": {
                "region": "Lombardia",
                "province": "BG",
                "municipality": "Gaverina Terme",
                "road": "Strada Provinciale 39"
            },
            "id": 199,
            "elevation": 763,
            "name": "Passo del Colle Gallo",
            "type": "pass",
            "coordinates": {
                "longitude": 9.87386,
                "latitude": 45.753529
            }
        },
        {
            "address": {
                "region": "Lombardia",
                "province": "BG",
                "municipality": "Grone",
                "road": "SP79"
            },
            "id": 200,
            "elevation": 1070,
            "name": "Colli di San Fermo",
            "type": "pass",
            "coordinates": {
                "longitude": 9.955271,
                "latitude": 45.733082
            }
        },
        {
            "address": {
                "region": "Lombardia",
                "province": "BS",
                "municipality": "Polaveno",
                "road": "Passo dei Tre Termini, Via Roma"
            },
            "id": 201,
            "elevation": 681,
            "name": "Passo dei Tre Termin",
            "type": "pass",
            "coordinates": {
                "longitude": 10.106134,
                "latitude": 45.660488
            }
        },
        {
            "address": {
                "region": "Lombardia",
                "province": "BS",
                "municipality": "Capovalle",
                "road": "SP58"
            },
            "id": 202,
            "elevation": 1020,
            "name": "Passo San Rocco",
            "type": "pass",
            "coordinates": {
                "longitude": 10.538571,
                "latitude": 45.748764
            }
        },
        {
            "address": {
                "region": "Lombardia",
                "province": "BS",
                "municipality": "Capovalle",
                "road": "SP56"
            },
            "id": 203,
            "elevation": 1100,
            "name": "Passo Fobbia",
            "type": "pass",
            "coordinates": {
                "longitude": 10.504367,
                "latitude": 45.726166
            }
        },
        {
            "address": {
                "region": "Lombardia",
                "province": "BS",
                "municipality": "Capovalle",
                "road": "Passo del Cavallino della Fobbia"
            },
            "id": 204,
            "elevation": 1090,
            "name": "Passo Cavallino",
            "type": "pass",
            "coordinates": {
                "longitude": 10.518311,
                "latitude": 45.728321
            }
        },
        {
            "address": {
                "region": "Trentino-Alto Adige",
                "province": "TN",
                "municipality": "Ledro",
                "road": "Passo dell'Ampola, SS240"
            },
            "id": 205,
            "elevation": 1388,
            "name": "Passo Ampola",
            "type": "pass",
            "coordinates": {
                "longitude": 10.645452,
                "latitude": 45.864372
            }
        },
        {
            "address": {
                "region": "Trentino-Alto Adige",
                "province": "TN",
                "municipality": "Sella Giudicarie",
                "road": "SS237"
            },
            "id": 207,
            "elevation": 819,
            "name": "Sella di Bondo",
            "type": "pass",
            "coordinates": {
                "longitude": 10.69129,
                "latitude": 45.997135
            }
        },
        {
            "address": {
                "region": "Trentino-Alto Adige",
                "province": "TN",
                "municipality": "Trento",
                "road": "Strada di Vason"
            },
            "id": 208,
            "elevation": 1650,
            "name": "Monte Bondone",
            "type": "pass",
            "coordinates": {
                "longitude": 11.058007,
                "latitude": 46.039146
            }
        },
        {
            "address": {
                "region": "Trentino-Alto Adige",
                "province": "TN",
                "municipality": "Ronzo-Chienis",
                "road": "Passo Bordala, Strada Provinciale Bordala"
            },
            "id": 209,
            "elevation": 1250,
            "name": "Passo Bordala",
            "type": "pass",
            "coordinates": {
                "longitude": 10.977101,
                "latitude": 45.907143
            }
        },
        {
            "address": {
                "region": "Trentino-Alto Adige",
                "province": "TN",
                "municipality": "Nago-Torbole",
                "road": "Passo San Giovanni, SS240"
            },
            "id": 210,
            "elevation": 287,
            "name": "Passo San Giovanni",
            "type": "pass",
            "coordinates": {
                "longitude": 10.906629,
                "latitude": 45.873802
            }
        },
        {
            "address": {
                "region": "Trentino-Alto Adige",
                "province": "TN",
                "municipality": "Vallarsa",
                "road": "Strada Provinciale di Camposilvano"
            },
            "id": 211,
            "elevation": 1163,
            "name": "Pian delle Fugazze",
            "type": "pass",
            "coordinates": {
                "longitude": 11.172881,
                "latitude": 45.76022
            }
        },
        {
            "address": {
                "region": "Veneto",
                "province": "VI",
                "municipality": "Recoaro Terme",
                "road": "Passo Xon, SP246 di Recoaro"
            },
            "id": 212,
            "elevation": 671,
            "name": "Passo Xon",
            "type": "pass",
            "coordinates": {
                "longitude": 11.221139,
                "latitude": 45.720287
            }
        },